loggingTime,loggingSample,locationTimestamp_since1970,locationLatitude,locationLongitude,locationAltitude,locationSpeed,locationCourse,locationVerticalAccuracy,locationHorizontalAccuracy,locationFloor,locationHeadingTimestamp_since1970,locationHeadingX,locationHeadingY,locationHeadingZ,locationTrueHeading,locationMagneticHeading,locationHeadingAccuracy,accelerometerTimestamp_sinceReboot,accelerometerAccelerationX,accelerometerAccelerationY,accelerometerAccelerationZ,gyroTimestamp_sinceReboot,gyroRotationX,gyroRotationY,gyroRotationZ,motionTimestamp_sinceReboot,motionYaw,motionRoll,motionPitch,motionRotationRateX,motionRotationRateY,motionRotationRateZ,motionUserAccelerationX,motionUserAccelerationY,motionUserAccelerationZ,motionAttitudeReferenceFrame,motionQuaternionX,motionQuaternionY,motionQuaternionZ,motionQuaternionW,motionGravityX,motionGravityY,motionGravityZ,motionMagneticFieldX,motionMagneticFieldY,motionMagneticFieldZ,motionMagneticFieldCalibrationAccuracy,activityTimestamp_sinceReboot,activity,activityActivityConfidence,activityActivityStartDate,pedometerStartDate,pedometerNumberofSteps,pedometerDistance,pedometerFloorAscended,pedometerFloorDescended,pedometerEndDate,altimeterTimestamp_sinceReboot,altimeterReset,altimeterRelativeAltitude,altimeterPressure,IP_en0,IP_pdp_ip0,deviceOrientation,state
2015-02-16 17:20:25.711,1,1424136019.983147,37.77934888872807,-122.4387631056451,55.68754,-1,-1,10,65,-9999,1424136025.6044,-27.79302215576172,-37.79910278320312,9.4053955078125,136.2305145263672,122.4495544433594,25,526925.3503247917,-0.222808837890625,-0.9354705810546875,-0.2163543701171875,526925.2465037917,0.004225371385519719,-0.04246836463905758,-0.01062814327828822,526925.2465037917,2.943280031831681,-0.8650043180935607,1.239053006030542,0.02129930630326271,-0.05017209053039551,-0.02025316655635834,-0.03216110914945602,0.001292645698413253,0.005689331796020269,XTrueNorthZVertical,0.3917591867319755,0.4908124596889951,0.7114625660818152,0.3153552227774605,-0.2478834539651871,-0.9454759955406189,-0.211255744099617,-28.30566024780273,-35.79817581176758,9.550906181335449,1,526920.2770250418,unknown,2,2015-02-16 17:20:20.560,null,0,0,0,0,null,0,0.03183746,100.667,192.168.1.3,10.191.100.224,1,0
2015-02-16 17:20:25.809,2,1424136019.983147,37.77934888872807,-122.4387631056451,55.68754,-1,-1,10,65,-9999,1424136025.721671,-28.07119750976562,-37.9378662109375,9.87493896484375,135.9472808837891,122.1663284301758,25,526925.4495557917,-0.2388763427734375,-0.9390716552734375,-0.1989288330078125,526925.3464337917,-0.1205463888457827,-0.3902905188088565,0.01780589504826979,526925.3464337917,2.929114718268002,-0.8597280223757322,1.242222259007375,-0.1034738048911095,-0.3979937434196472,0.008180818520486355,0.01870951056480408,0.007843776606023312,-0.002515488304197788,XTrueNorthZVertical,0.3930957829112261,0.4900751944324883,0.7093617897716427,0.3195432535900957,-0.2444938123226166,-0.9465034604072571,-0.2106040120124817,-28.07321166992188,-35.95708084106445,9.639652252197266,1,526920.2770250418,unknown,2,2015-02-16 17:20:20.560,null,0,0,0,0,null,0,0.03183746,100.667,192.168.1.3,10.191.100.224,1,0
2015-02-16 17:20:25.909,3,1424136019.983147,37.77934888872807,-122.4387631056451,55.68754,-1,-1,10,65,-9999,1424136025.84094,-26.74985122680664,-37.59098815917969,11.21670532226562,139.5351409912109,125.7541809082031,25,526925.5488107917,-0.2987823486328125,-0.9228973388671875,-0.1564788818359375,526925.5463047917,0.02855361425950257,-0.7703531674512637,-0.01529986046250522,526925.4463687917,2.901168935360168,-0.8959871611760755,1.235167052766324,0.03275539353489876,-0.5457939505577087,-0.07414881885051727,0.01572054624557495,0.01134190894663334,0.001972888363525271,XTrueNorthZVertical,0.41318690168065,0.4758066274687566,0.6994438007574518,0.3371394927354636,-0.257175624370575,-0.94420325756073,-0.205769270658493,-27.5633430480957,-36.06021118164062,10.6706714630127,1,526920.2770250418,unknown,2,2015-02-16 17:20:20.560,null,0,0,0,0,null,0,0.03183746,100.667,192.168.1.3,10.191.100.224,1,0
2015-02-16 17:20:26.021,4,1424136025.950518,37.77933603749697,-122.4387459588775,55.02693,-1,-1,10,65,-9999,1424136025.961748,-25.77622985839844,-37.38285827636719,13.83316040039062,143.3009185791016,129.5199584960938,25,526925.6480447917,-0.289794921875,-0.9332275390625,-0.0602264404296875,526925.5463047917,0.02855361425950257,-0.7703531674512637,-0.01529986046250522,526925.5463047917,2.909449793986733,-0.9808153546205269,1.235521854196036,0.04562966153025627,-0.7780556678771973,-0.02493147924542427,-0.02064551971852779,0.01989681832492352,0.02536907605826855,XTrueNorthZVertical,0.4405265267987062,0.4630439271131626,0.6826694927616129,0.3542443998802153,-0.273406594991684,-0.944320023059845,-0.1830534040927887,-26.684326171875,-36.05611801147461,12.72174263000488,1,526920.2770250418,unknown,2,2015-02-16 17:20:20.560,null,0,0,0,0,null,0,0.03183746,100.667,192.168.1.3,10.191.100.224,1,0
2015-02-16 17:20:26.107,5,1424136025.950518,37.77933603749697,-122.4387459588775,55.02693,-1,-1,10,65,-9999,1424136026.078925,-24.31579208374023,-37.03599548339844,16.583740234375,146.5869750976562,132.8060150146484,25,526925.7472777917,-0.2061614990234375,-0.954986572265625,0.0078277587890625,526925.6462617917,0.3676323442544623,-0.2201558041496894,-0.07229044252576489,526925.6462617917,2.944424874159574,-1.077321875885092,1.253337337805111,0.3846544921398163,-0.2279119044542313,-0.08191133290529251,-0.0333162322640419,0.02296868152916431,0.08418869972229004,XTrueNorthZVertical,0.4630420112018809,0.4600655191897028,0.6623027904327706,0.3678136187573748,-0.2749113142490387,-0.9500316977500916,-0.1478636264801025,-25.31903457641602,-36.06431579589844,15.23979377746582,1,526920.2770250418,unknown,2,2015-02-16 17:20:20.560,null,0,0,0,0,null,0,0.03183746,100.667,192.168.1.3,10.191.100.224,1,0
2015-02-16 17:20:26.206,6,1424136025.950518,37.77933603749697,-122.4387459588775,55.02693,-1,-1,10,65,-9999,1424136026.179558,-21.18629455566406,-36.34222412109375,20.87741088867188,152.6026306152344,138.8216705322266,25,526925.8465207916,-0.3421783447265625,-0.987457275390625,-0.0884246826171875,526925.7461837917,0.3215828268975752,-2.289863935870069,0.04716298500864926,526925.7461837917,3.096504252171095,-1.326942535730053,1.284625277886749,0.3386121094226837,-2.297622442245483,0.03754521161317825,0.1085703000426292,0.0003168530238326639,0.04027733951807022,XTrueNorthZVertical,0.5036370334223478,0.4607300348616239,0.6223719945607535,0.3830544404807448,-0.2739298045635223,-0.959331750869751,-0.06815514713525772,-24.00825500488281,-35.62093734741211,18.12987327575684,1,526920.2770250418,unknown,2,2015-02-16 17:20:20.560,null,0,0,0,0,null,0,0.03183746,100.667,192.168.1.3,10.191.100.224,1,0
2015-02-16 17:20:26.305,7,1424136025.950518,37.77933603749697,-122.4387459588775,55.02693,-1,-1,10,65,-9999,1424136026.294568,-19.20428466796875,-36.16876220703125,23.39315795898438,156.7006683349609,142.9197082519531,25,526925.9457477917,-0.1963043212890625,-0.9735260009765625,0.004638671875,526925.8461137917,0.2700567850750491,-0.1409414091058275,-0.2756467602031255,526925.8461137917,-3.08281161165909,-1.533038477827428,1.309474915675181,0.2870857417583466,-0.1486998796463013,-0.2852643132209778,-0.09535758197307587,-0.013625867664814,-0.08445505797863007,XTrueNorthZVertical,0.5370666800839249,0.4546240527742343,0.5835366418540904,0.4054150587237934,-0.2581732869148254,-0.9660494327545166,-0.009752703830599785,-20.21242141723633,-35.15422058105469,23.0125675201416,1,526920.2770250418,unknown,2,2015-02-16 17:20:20.560,null,0,0,0,0,null,0,0.03183746,100.667,192.168.1.3,10.191.100.224,1,0
2015-02-16 17:20:26.420,8,1424136025.950518,37.77933603749697,-122.4387459588775,55.02693,-1,-1,10,65,-9999,1424136026.395712,-17.84815979003906,-36.61970520019531,23.62796020507812,159.0784912109375,145.2975311279297,25,526926.0449867917,-0.3272705078125,-0.955291748046875,0.011993408203125,526925.9460537917,0.01439944569794943,-0.08955385165998553,-0.1843381517008867,526925.9460537917,-3.030546251819955,-1.581593641784152,1.33494512548793,0.03142803907394409,-0.09731215983629227,-0.1939555257558823,0.03735289350152016,-0.00121020816732198,0.0021157031878829,XTrueNorthZVertical,0.5333246879785704,0.4656460689165399,0.5759171677388353,0.408727246513389,-0.2336572110652924,-0.972315788269043,0.0025229686871171,-19.16757583618164,-35.26770782470703,23.72198677062988,1,526920.2770250418,unknown,2,2015-02-16 17:20:20.560,null,0,0,0,0,null,0,0.03183746,100.667,192.168.1.3,10.191.100.224,1,0
2015-02-16 17:20:26.505,9,1424136025.950518,37.77933603749697,-122.4387459588775,55.02693,-1,-1,10,65,-9999,1424136026.395712,-17.84815979003906,-36.61970520019531,23.62796020507812,159.0784912109375,145.2975311279297,25,526926.1442227917,-0.1910858154296875,-0.9886322021484375,-0.0262298583984375,526926.0459847917,-0.2738557843700472,-0.4291881170583358,0.1099640519382438,526926.0459847917,-3.095201510533458,-1.57837901506283,1.332414115562969,-0.2568275332450867,-0.4369462430477142,0.1003468632698059,-0.09114626795053482,0.01642950810492039,0.01020291727036238,XTrueNorthZVertical,0.5477636340108287,0.4481631919900589,0.563820454787019,0.4256891821598194,-0.2361242324113846,-0.9717212319374084,0.001790490816347301,-17.93366241455078,-35.52374267578125,24.29788589477539,1,526920.2770250418,unknown,2,2015-02-16 17:20:20.560,null,0,0,0,0,null,0,0.03183746,100.667,192.168.1.3,10.191.100.224,1,0
2015-02-16 17:20:26.602,10,1424136025.950518,37.77933603749697,-122.4387459588775,55.02693,-1,-1,10,65,-9999,1424136026.514306,-17.1527099609375,-36.75843811035156,23.695068359375,161.3026885986328,147.521728515625,25,526926.2434837917,-0.20709228515625,-0.982879638671875,-0.0167083740234375,526926.1459207917,-0.1976275918564911,0.1431113527620241,-0.142369396082328,526926.1459207917,3.119352722078815,-1.502178582823422,1.336217973434365,-0.1805993765592575,0.1353520303964615,-0.1519773900508881,0.04080024361610413,-0.01601976901292801,-0.01029334031045437,XTrueNorthZVertical,0.5407102061327852,0.4468380177241974,0.5690520779262348,0.4291247160809887,-0.2318860590457916,-0.9726124405860901,-0.01593651808798313,-17.78368377685547,-35.95452117919922,23.76873207092285,1,526920.2770250418,unknown,2,2015-02-16 17:20:20.560,null,0,0,0,0,null,0,0.03183746,100.667,192.168.1.3,10.191.100.224,1,0
2015-02-16 17:20:26.702,11,1424136025.950518,37.77933603749697,-122.4387459588775,55.02693,-1,-1,10,65,-9999,1424136026.630483,-16.21385955810547,-37.55628967285156,22.78939819335938,163.093994140625,149.3130340576172,25,526926.3427137916,-0.142730712890625,-0.9091033935546875,0.029449462890625,526926.2458577917,-0.3348496301839139,-0.3803183121070548,-0.3599235581631189,526926.2458577917,2.98425485972904,-1.402929996613041,1.357633889710521,-0.317821741104126,-0.3880774676799774,-0.3695313334465027,0.001485987682826817,-0.005512855015695095,0.0186375267803669,XTrueNorthZVertical,0.5384161837690401,0.438674210682213,0.5608720473668981,0.4506612107381648,-0.2085782736539841,-0.9773668050765991,-0.0353459008038044,-16.45532608032227,-36.9423942565918,23.20390892028809,1,526920.2770250418,unknown,2,2015-02-16 17:20:20.560,null,0,0,0,0,null,0,0.03183746,100.667,192.168.1.3,10.191.100.224,1,0
2015-02-16 17:20:26.803,12,1424136025.950518,37.77933603749697,-122.4387459588775,55.02693,-1,-1,10,65,-9999,1424136026.749713,-12.94527053833008,-39.01316833496094,21.64895629882812,168.3968353271484,154.6158752441406,25,526926.4419617917,-0.0625762939453125,-0.9434356689453125,-0.0220794677734375,526926.3457937917,-0.1490888178287069,0.02614398610519887,-0.7062101336483781,526926.3457937917,2.793162069675638,-1.223783039745858,1.405649082860741,-0.1320579200983047,0.01838380843400955,-0.7158163189888,0.01186772249639034,0.07729076594114304,0.0853595957159996,XTrueNorthZVertical,0.5233683293086838,0.4451185501923103,0.5507677638390239,0.4739303418337954,-0.1545984297990799,-0.9863941669464111,-0.0559101365506649,-14.46276092529297,-38.16226959228516,22.54793167114258,1,526920.2770250418,unknown,2,2015-02-16 17:20:20.560,null,0,0,0,0,null,0,0.03183746,100.667,192.168.1.3,10.191.100.224,1,0
2015-02-16 17:20:26.901,13,1424136025.950518,37.77933603749697,-122.4387459588775,55.02693,-1,-1,10,65,-9999,1424136026.868933,-8.70306396484375,-40.40069580078125,22.31982421875,174.6631317138672,160.8821716308594,25,526926.5412117917,-0.1886749267578125,-0.961639404296875,-0.069122314453125,526926.4457227917,0.1606996675492344,-0.2578158314406089,-0.8677910412023198,526926.4457227917,2.514903959808978,-0.9393764809728231,1.484888270166105,0.1777303516864777,-0.2655758857727051,-0.8773970603942871,0.006682855077087879,0.05287650227546692,0.02856916934251785,XTrueNorthZVertical,0.503083581710138,0.470725601276638,0.5307126594046626,0.4936278169913855,-0.0692591518163681,-0.9963122010231018,-0.05064863711595535,-11.44179534912109,-39.27299118041992,22.37537002563477,1,526920.2770250418,unknown,2,2015-02-16 17:20:20.560,null,0,0,0,0,null,0,0.03183746,100.667,192.168.1.3,10.191.100.224,1,0
2015-02-16 17:20:27.000,14,1424136025.950518,37.77933603749697,-122.4387459588775,55.02693,-1,-1,10,65,-9999,1424136026.969048,-4.947662353515625,-40.33131408691406,22.99066162109375,181.2843475341797,167.5033874511719,25,526926.6404247917,-0.154327392578125,-1.03631591796875,-0.1081695556640625,526926.5456647917,-0.07286941374674812,-0.6609033719195141,-0.4574160267165217,526926.5456647917,1.416239163027347,0.1009304608585291,1.52851590965742,-0.05583904311060905,-0.6686633229255676,-0.4670217633247375,-0.1929338723421097,0.03746691346168518,-0.02706891484558582,XTrueNorthZVertical,0.5012809608945257,0.4771694648224978,0.4954431702288644,0.5249407543740996,0.004258940927684307,-0.9991062879562378,-0.04205340147018433,-7.537535190582275,-39.7634391784668,23.15155029296875,1,526920.2770250418,unknown,2,2015-02-16 17:20:20.560,null,0,0,0,0,null,0,0.03183746,100.667,192.168.1.3,10.191.100.224,1,0
2015-02-16 17:20:27.101,15,1424136025.950518,37.77933603749697,-122.4387459588775,55.02693,-1,-1,10,65,-9999,1424136027.086753,-3.000419616699219,-40.88633728027344,22.11862182617188,184.3151550292969,170.5341949462891,25,526926.7396877917,-0.1206207275390625,-0.7752685546875,-0.044586181640625,526926.6456007917,-0.1196070919293117,0.3979553627422135,-0.4892466606973668,526926.6456007917,0.8608588374839705,0.6452529425954125,1.505225600077829,-0.1026220917701721,0.3901451826095581,-0.498844176530838,-0.1937336772680283,-0.03846490755677223,-0.05581915751099586,XTrueNorthZVertical,0.4925855383834798,0.4808162724183645,0.4858040748461295,0.5386739559879121,0.03940628468990326,-0.9978510141372681,-0.05235039815306664,-5.114811897277832,-40.16036987304688,23.12840461730957,1,526920.2770250418,unknown,2,2015-02-16 17:20:20.560,null,0,0,0,0,null,0,0.03183746,100.667,192.168.1.3,10.191.100.224,1,0
2015-02-16 17:20:27.203,16,1424136025.950518,37.77933603749697,-122.4387459588775,55.02693,-1,-1,10,65,-9999,1424136027.086753,-3.000419616699219,-40.88633728027344,22.11862182617188,184.3151550292969,170.5341949462891,25,526926.8389307917,-0.0438232421875,-0.7865447998046875,-0.072906494140625,526926.7455257917,-0.3810448224524284,0.1318062339346377,-0.5318939897616777,526926.7455257917,0.6605115792345713,0.8651499177288184,1.449403749337491,-0.364065408706665,0.1239969357848167,-0.5414835810661316,-0.2127972394227982,0.2173724174499512,0.03394700214266777,XTrueNorthZVertical,0.4675460827731371,0.4920712034533337,0.4833090628870905,0.5528824209452581,0.09217651933431625,-0.9926409721374512,-0.07853318005800247,-3.705782651901245,-40.79081726074219,22.27814865112305,1,526920.2770250418,unknown,2,2015-02-16 17:20:20.560,null,0,0,0,0,null,0,0.0793457,100.6664,192.168.1.3,10.191.100.224,1,0
2015-02-16 17:20:27.302,17,1424136025.950518,37.77933603749697,-122.4387459588775,55.02693,-1,-1,10,65,-9999,1424136027.205463,-1.29656982421875,-42.37789916992188,20.27371215820312,185.4479522705078,171.6669921875,25,526926.9381527917,0.013153076171875,-0.707427978515625,-0.0992279052734375,526926.8454797918,0.1106639306727166,0.9439838136733778,-0.5608281697409526,526926.8454797918,0.5395677571378501,1.04577995967761,1.399398590688124,0.1276429891586304,0.9361746311187744,-0.570417582988739,-0.1914114356040955,0.1988025307655334,0.01258277799934149,XTrueNorthZVertical,0.4359316416835346,0.5169322658504426,0.4866202783716943,0.5531232877242522,0.1475881934165955,-0.9853473305702209,-0.08548927307128906,-2.264965057373047,-41.58727264404297,20.95967864990234,1,526920.2770250418,unknown,2,2015-02-16 17:20:20.560,null,0,0,0,0,null,0,0.0793457,100.6664,192.168.1.3,10.191.100.224,1,0
2015-02-16 17:20:27.399,18,1424136025.950518,37.77933603749697,-122.4387459588775,55.02693,-1,-1,10,65,-9999,1424136027.324214,1.415664672851562,-41.47601318359375,21.2799072265625,187.7933654785156,174.0124053955078,25,526927.0374037917,0.11474609375,-0.87066650390625,0.0568695068359375,526926.9454087917,-0.0730606287130158,0.4317364959054327,-1.015929376837977,526926.9454087917,0.3396624802700893,1.30048306283949,1.328107913597295,-0.05608190968632698,0.423927515745163,-1.025518536567688,-0.2184337377548218,0.263267457485199,-0.03505625948309898,XTrueNorthZVertical,0.4029144583233614,0.5527875865382679,0.4736752224571519,0.554723027750753,0.2315868139266968,-0.970695436000824,-0.06417164951562881,-0.4197673797607422,-41.43494415283203,21.37542915344238,1,526920.2770250418,unknown,2,2015-02-16 17:20:20.560,null,0,0,0,0,null,0,0.0793457,100.6664,192.168.1.3,10.191.100.224,1,0
2015-02-16 17:20:27.498,19,1424136025.950518,37.77933603749697,-122.4387459588775,55.02693,-1,-1,10,65,-9999,1424136027.44279,1.798171997070312,-41.44131469726562,19.90457153320312,183.7796020507812,169.9986419677734,25,526927.1366397917,0.6855010986328125,-0.9494171142578125,-0.02569580078125,526927.0453457917,0.1607635834153963,2.799045688907223,-0.3507436418856159,526927.0453457917,0.3025473747850549,1.480436738029326,1.252078687636169,0.1777419596910477,2.791236639022827,-0.3603326976299286,-0.1973246783018112,0.07897152006626129,0.08514509350061417,XTrueNorthZVertical,0.3453088065497862,0.6054948685477899,0.4808360842917346,0.5319158606096032,0.3120707869529724,-0.9496380090713501,-0.02827558480203152,0.747136116027832,-41.59645843505859,21.05032920837402,1,526920.2770250418,unknown,2,2015-02-16 17:20:20.560,null,0,0,0,0,null,0,0.0793457,100.6664,192.168.1.3,10.191.100.224,1,0
2015-02-16 17:20:27.599,20,1424136025.950518,37.77933603749697,-122.4387459588775,55.02693,-1,-1,10,65,-9999,1424136027.561426,-1.609512329101562,-41.6494140625,20.17294311523438,174.9571228027344,161.1761627197266,25,526927.2359407917,0.3637237548828125,-0.981292724609375,-0.03173828125,526927.1452807917,-0.119920545989614,0.1193985664159585,0.1984800697214255,526927.1452807917,0.3208254179534707,1.634176624156995,1.253605837389022,-0.1029425039887428,0.1115898862481117,0.1888912171125412,0.3742288053035736,0.000698334421031177,-0.04545079171657562,XTrueNorthZVertical,0.3019303238534636,0.6470823551189282,0.5107309158506127,0.4788282231338122,0.3112722933292389,-0.950115442276001,0.01975498907268047,-3.431719779968262,-41.62107086181641,20.73281288146973,1,526920.2770250418,unknown,2,2015-02-16 17:20:20.560,null,0,0,0,0,null,0,0.0793457,100.6664,192.168.1.3,10.191.100.224,1,0
2015-02-16 17:20:27.701,21,1424136025.950518,37.77933603749697,-122.4387459588775,55.02693,-1,-1,10,65,-9999,1424136027.679724,-2.72222900390625,-42.75944519042969,18.16030883789062,174.3013305664062,160.5203704833984,25,526927.3351587917,0.157073974609375,-1.084320068359375,-0.0379791259765625,526927.2452467917,-0.5726818997528953,-0.2489512334361711,0.3899208720495535,526927.2452467917,0.4922770116772982,1.421006913206359,1.289262357141638,-0.5557041764259338,-0.2567597627639771,0.3803322017192841,0.08900509029626846,-0.0206623375415802,0.009722213260829449,XTrueNorthZVertical,0.3147489373924478,0.6166059190108395,0.5277434791443644,0.4921555625158888,0.2747186720371246,-0.9606303572654724,-0.04146049544215202,-4.130986213684082,-42.37025833129883,19.01671600341797,1,526920.2770250418,unknown,2,2015-02-16 17:20:20.560,null,0,0,0,0,null,0,0.0793457,100.6664,192.168.1.3,10.191.100.224,1,0
2015-02-16 17:20:27.797,22,1424136025.950518,37.77933603749697,-122.4387459588775,55.02693,-1,-1,10,65,-9999,1424136027.780146,-4.912887573242188,-43.69601440429688,15.64453125,169.7028961181641,155.9219360351562,25,526927.4343897917,0.2404632568359375,-0.9875335693359375,-0.1092529296875,526927.3451947917,-0.491572399277333,0.2570184810102392,0.3678539192571569,526927.3451947917,0.7304751913477769,1.205704893487115,1.304126578566145,-0.4745950698852539,0.2492101192474365,0.3582654595375061,-0.1043064296245575,-0.1381446272134781,0.1048891767859459,XTrueNorthZVertical,0.3059210263111111,0.5994742276086729,0.5552204435567235,0.4886443139892483,0.2461521327495575,-0.9646538496017456,-0.09408595412969589,-5.457357406616211,-43.21270751953125,16.63786888122559,1,526920.2770250418,unknown,2,2015-02-16 17:20:20.560,null,0,0,0,0,null,0,0.0793457,100.6664,192.168.1.3,10.191.100.224,1,0
2015-02-16 17:20:27.898,23,1424136025.950518,37.77933603749697,-122.4387459588775,55.02693,-1,-1,10,65,-9999,1424136027.780146,-4.912887573242188,-43.69601440429688,15.64453125,169.7028961181641,155.9219360351562,25,526927.5336267917,0.2675933837890625,-0.884857177734375,-0.0455780029296875,526927.4451317918,-0.5444649090551787,0.8960114940094535,0.4632941558745446,526927.4451317918,0.9908472593806487,1.011771279738598,1.323576875490838,-0.5274878740310669,0.8882032632827759,0.4537058770656586,0.05299468338489532,0.02378055453300476,0.005302645731717348,XTrueNorthZVertical,0.2911849083887266,0.5918778806508552,0.5900536971504198,0.4655411780343683,0.2074575871229172,-0.9695965647697449,-0.1297838538885117,-8.208583831787109,-43.69580078125,14.04406642913818,1,526920.2770250418,unknown,2,2015-02-16 17:20:20.560,null,0,0,0,0,null,0,0.0793457,100.6664,192.168.1.3,10.191.100.224,1,0
2015-02-16 17:20:27.994,24,1424136025.950518,37.77933603749697,-122.4387459588775,55.02693,-1,-1,10,65,-9999,1424136027.899289,-8.320549011230469,-43.21038818359375,13.02813720703125,162.9025115966797,149.1215515136719,25,526927.6328667917,0.2336883544921875,-1.058334350585938,-0.121826171875,526927.5450667917,-0.6548955468164044,0.5422025537091564,0.6664837596676662,526927.5450667917,1.327630131098144,0.7510359247636648,1.327055364166462,-0.6379189491271973,0.5343945622444153,0.6568948030471802,0.09152434021234512,0.09147465974092484,0.1280868947505951,XTrueNorthZVertical,0.2732859247053946,0.5806109408374049,0.6294925593274175,0.4381151525944349,0.164685994386673,-0.9704419374465942,-0.1764114797115326,-11.53982162475586,-43.91382598876953,10.59944725036621,1,526920.2770250418,unknown,2,2015-02-16 17:20:20.560,null,0,0,0,0,null,0,0.0793457,100.6664,192.168.1.3,10.191.100.224,1,0
2015-02-16 17:20:28.096,25,1424136025.950518,37.77933603749697,-122.4387459588775,55.02693,-1,-1,10,65,-9999,1424136028.018094,-12.49321746826172,-43.21041870117188,9.0699462890625,154.5125579833984,140.7315979003906,25,526927.7320987917,0.0930023193359375,-1.056854248046875,-0.2606964111328125,526927.6450037917,-0.2853675644980236,0.2887790738544151,0.8990421713299636,526927.6450037917,1.701322861899118,0.4300585176057893,1.333450780729633,-0.2683902680873871,0.2809712886810303,0.889452338218689,0.1322875320911407,-0.1103098690509796,0.07191356271505356,XTrueNorthZVertical,0.2723951373242773,0.5647513992890252,0.6641553171237528,0.4071295756181688,0.09802863746881485,-0.9719655513763428,-0.2137134969234467,-14.81307601928711,-43.45972442626953,8.109542846679688,1,526920.2770250418,unknown,2,2015-02-16 17:20:20.560,null,0,0,0,0,null,0,0.0793457,100.6664,192.168.1.3,10.191.100.224,1,0
2015-02-16 17:20:28.194,26,1424136025.950518,37.77933603749697,-122.4387459588775,55.02693,-1,-1,10,65,-9999,1424136028.134798,-17.01361465454102,-41.75349426269531,7.6611328125,147.8310089111328,134.050048828125,25,526927.8313477917,0.018310546875,-0.96942138671875,-0.2960205078125,526927.7449387917,-0.2540834111728629,-0.06082872982628187,0.6744135881294862,526927.7449387917,2.072841525131654,0.0710089677071685,1.332665372424336,-0.2371437102556229,-0.06868415325880051,0.6648294925689697,0.02171614021062851,-0.07553695142269135,-0.03419309109449387,XTrueNorthZVertical,0.2905921806106628,0.5458113164209983,0.6872502107108768,0.3812261399172135,0.01673600822687149,-0.97178053855896,-0.2352923899888992,-18.8038387298584,-42.10763931274414,6.877651214599609,1,526920.2770250418,unknown,2,2015-02-16 17:20:20.560,null,0,0,0,0,null,0,0.0793457,100.6664,192.168.1.3,10.191.100.224,1,0
2015-02-16 17:20:28.292,27,1424136025.950518,37.77933603749697,-122.4387459588775,55.02693,-1,-1,10,65,-9999,1424136028.255192,-19.79539489746094,-40.78224182128906,6.45361328125,144.1630249023438,130.3820648193359,25,526927.9305917918,0.0903167724609375,-0.9834442138671875,-0.1201324462890625,526927.8448767917,-0.3294777679491151,0.06168227295565226,0.3899459057638002,526927.8448767917,2.283427150796111,-0.1270666303242685,1.304067429040775,-0.3125384151935577,0.05382700636982918,0.3803620338439941,0.03927648440003395,-0.01607464626431465,-0.02143017388880253,XTrueNorthZVertical,0.2978343339724721,0.5296871255273576,0.7053096642976703,0.3650541965923051,-0.03340185061097145,-0.9646382331848145,-0.2614525258541107,-21.30692100524902,-41.0850830078125,5.654275894165039,1,526927.8865827917,unknown,2,2015-02-16 17:20:28.182,null,0,0,0,0,null,0,0.0793457,100.6664,192.168.1.3,10.191.100.224,1,0
2015-02-16 17:20:28.392,28,1424136025.950518,37.77933603749697,-122.4387459588775,55.02693,-1,-1,10,65,-9999,1424136028.373302,-21.39491653442383,-39.74160766601562,4.44110107421875,140.0124359130859,126.2314834594727,25,526928.0298307918,-0.0805206298828125,-0.97186279296875,-0.18609619140625,526927.9448087917,-0.1729049348250675,0.7540732637076093,0.2608848582808162,526927.9448087917,2.36179315347376,-0.1372243193817344,1.272984255945993,-0.1559630930423737,0.7462182641029358,0.2512979805469513,0.1702816039323807,-0.01604986004531384,0.1143098995089531,XTrueNorthZVertical,0.2763847028423077,0.5275187230542432,0.726590431124104,0.3426395609156727,-0.04013939201831818,-0.9559807777404785,-0.2906709909439087,-22.54714393615723,-40.66267395019531,3.480354309082031,1,526927.8865827917,unknown,2,2015-02-16 17:20:28.182,null,0,0,0,0,null,0,0.0793457,100.6664,192.168.1.3,10.191.100.224,1,0
2015-02-16 17:20:28.504,29,1424136025.950518,37.77933603749697,-122.4387459588775,55.02693,-1,-1,10,65,-9999,1424136028.491804,-20.97764205932617,-39.81098937988281,7.25872802734375,142.9088287353516,129.1278686523438,25,526928.1290637917,-0.362823486328125,-1.155990600585938,-0.2950897216796875,526928.0447397917,0.4012763246215423,-0.2239510750191613,0.1418399596576202,526928.0447397917,2.461122134491457,-0.3044364582376102,1.27456523820904,0.4182178378105164,-0.2318058907985687,0.1322532743215561,0.08005765080451965,-0.02237731032073498,0.09770794957876205,XTrueNorthZVertical,0.3111477137528108,0.5137509701203953,0.7187750071331298,0.350156480007336,-0.08750393986701965,-0.9564434885978699,-0.2784940898418427,-23.5610523223877,-39.97840881347656,4.532472610473633,1,526927.8865827917,unknown,2,2015-02-16 17:20:28.182,null,0,0,0,0,null,0,0.0793457,100.6664,192.168.1.3,10.191.100.224,1,0
2015-02-16 17:20:28.590,30,1424136025.950518,37.77933603749697,-122.4387459588775,55.02693,-1,-1,10,65,-9999,1424136028.491804,-20.97764205932617,-39.81098937988281,7.25872802734375,142.9088287353516,129.1278686523438,25,526928.2282987917,0.26580810546875,-1.500869750976562,-0.49005126953125,526928.1446637918,-0.1824180125549396,-1.609777548302604,-0.6543759640877299,526928.1446637918,2.293563164556435,-0.2516512658296428,1.296316036477402,-0.1654768288135529,-1.617632269859314,-0.6639624834060669,-0.362394243478775,-0.139682948589325,0.04389685392379761,XTrueNorthZVertical,0.3376042311252591,0.5047460956393768,0.6896861719663382,0.394446164520779,-0.06749161332845688,-0.9625661969184875,-0.2625095248222351,-22.61083793640137,-40.3238410949707,6.056206703186035,1,526927.8865827917,unknown,2,2015-02-16 17:20:28.182,null,0,0,0,0,null,0,0.0879364,100.6663,192.168.1.3,10.191.100.224,1,0
2015-02-16 17:20:28.689,31,1424136025.950518,37.77933603749697,-122.4387459588775,55.02693,-1,-1,10,65,-9999,1424136028.612584,-18.57835388183594,-40.74754333496094,8.7681884765625,148.7017974853516,134.9208374023438,25,526928.3275407917,-0.033660888671875,-0.9862213134765625,-0.4235992431640625,526928.2446137917,-0.1524326828934104,-2.102094301104615,-0.1743582218319238,526928.2446137917,2.183275530307237,-0.1088017382968355,1.301920823273563,-0.1354918330907822,-2.109948635101318,-0.1839445233345032,0.2062293589115143,-0.524760365486145,-0.3461526930332184,XTrueNorthZVertical,0.3173332529761824,0.5169731187267811,0.6896808868468439,0.3954474754391761,-0.02884592860937119,-0.964070200920105,-0.2640767991542816,-20.24317932128906,-41.50117874145508,6.465718269348145,1,526927.8865827917,unknown,2,2015-02-16 17:20:28.182,null,0,0,0,0,null,0,0.0879364,100.6663,192.168.1.3,10.191.100.224,1,0
2015-02-16 17:20:28.788,32,1424136025.950518,37.77933603749697,-122.4387459588775,55.02693,-1,-1,10,65,-9999,1424136028.729954,-16.49201965332031,-41.23318481445312,9.70733642578125,153.3937683105469,139.6128082275391,25,526928.4267937917,-0.01763916015625,-1.003005981445312,-0.103118896484375,526928.3445547917,0.2598100064648602,0.8533660291579056,-0.2158625221563727,526928.3445547917,2.091542396579954,-0.06987522302933391,1.316997183017186,0.2767512202262878,0.8455113172531128,-0.2254465222358704,0.1027505621314049,-0.01677570305764675,-0.2879510521888733,XTrueNorthZVertical,0.3304393529997256,0.515339251442188,0.6732534894581731,0.4146867001582376,-0.01753022707998753,-0.9679654836654663,-0.2504705786705017,-18.43368530273438,-41.95514297485352,8.596804618835449,1,526927.8865827917,unknown,2,2015-02-16 17:20:28.182,null,0,0,0,0,null,0,0.0879364,100.6663,192.168.1.3,10.191.100.224,1,0
2015-02-16 17:20:28.897,33,1424136025.950518,37.77933603749697,-122.4387459588775,55.02693,-1,-1,10,65,-9999,1424136028.848813,-14.2666015625,-41.99630737304688,11.1832275390625,157.9652252197266,144.1842651367188,25,526928.5260127917,0.0164642333984375,-1.016082763671875,-0.225555419921875,526928.4444797917,0.1817130738143956,-0.1969423605080137,-0.2113772262484612,526928.4444797917,1.95397827747633,-0.008784650969800996,1.333185948983737,0.1986539512872696,-0.2047968804836273,-0.2209610342979431,0.02719893865287304,0.01149977836757898,0.06902051717042923,XTrueNorthZVertical,0.3488159919555329,0.5105305924032338,0.6498682647294517,0.4419922928260391,-0.002067712601274252,-0.9719032049179077,-0.2353718429803848,-16.91554641723633,-42.32682037353516,9.810404777526855,1,526927.8865827917,unknown,2,2015-02-16 17:20:28.182,null,0,0,0,0,null,0,0.0879364,100.6663,192.168.1.3,10.191.100.224,1,0
2015-02-16 17:20:28.987,34,1424136025.950518,37.77933603749697,-122.4387459588775,55.02693,-1,-1,10,65,-9999,1424136028.9498,-13.60591888427734,-41.96160888671875,11.68637084960938,159.8623657226562,146.0814056396484,25,526928.6252757917,0.06890869140625,-0.96771240234375,-0.19573974609375,526928.5444277917,0.05625794644737887,-0.4426147100100793,-0.05301501518798938,526928.5444277917,1.901741874392844,-0.01513966979427974,1.343801040885749,0.07319848984479904,-0.4504690766334534,-0.06259863078594208,-0.01508658472448587,-0.02698050811886787,0.04242329299449921,XTrueNorthZVertical,0.3664534344727787,0.5031890984760654,0.6342520271687271,0.4585160935168105,-0.003407067852094769,-0.9743469953536987,-0.2250252217054367,-15.61602306365967,-42.48253631591797,11.19435405731201,1,526927.8865827917,unknown,2,2015-02-16 17:20:28.182,null,0,0,0,0,null,0,0.0879364,100.6663,192.168.1.3,10.191.100.224,1,0
2015-02-16 17:20:29.085,35,1424136025.950518,37.77933603749697,-122.4387459588775,55.02693,-1,-1,10,65,-9999,1424136029.068926,-13.049560546875,-42.10037231445312,12.96096801757812,161.3117370605469,147.5307769775391,25,526928.7245157917,-0.038787841796875,-0.95556640625,-0.1786956787109375,526928.6443607917,0.03159947159822619,-0.5169539223624422,-0.09443302909311971,526928.6443607917,1.882350210472258,-0.004824999638448776,1.354672106994802,0.04853967577219009,-0.5248081684112549,-0.1040164604783058,0.02763076685369015,0.0135706439614296,-0.009952506981790066,XTrueNorthZVertical,0.3705549827526609,0.5054378125691357,0.6289331475143707,0.4600703737296888,-0.001034696586430073,-0.9767359495162964,-0.214443251490593,-15.14674472808838,-42.44046783447266,11.97174167633057,1,526927.8865827917,unknown,2,2015-02-16 17:20:28.182,null,0,0,0,0,null,0,0.0879364,100.6663,192.168.1.3,10.191.100.224,1,0
2015-02-16 17:20:29.185,36,1424136025.950518,37.77933603749697,-122.4387459588775,55.02693,-1,-1,10,65,-9999,1424136029.068926,-13.049560546875,-42.10037231445312,12.96096801757812,161.3117370605469,147.5307769775391,25,526928.8237727917,-0.1434478759765625,-0.9852447509765625,-0.14141845703125,526928.7442987917,0.09392276742826053,0.02649605600130735,0.02846865942072904,526928.7442987917,1.882676327575286,-0.038873144311322,1.363467166041621,0.110833153128624,0.01859663054347038,0.01889046281576157,0.03603030368685722,0.03142537549138069,0.04318549856543541,XTrueNorthZVertical,0.3830966221402589,0.5003910236239206,0.6203377479938944,0.4669335182215966,-0.007999909110367298,-0.9785841703414917,-0.2056916058063507,-14.49519824981689,-42.34706115722656,13.05969142913818,1,526927.8865827917,unknown,2,2015-02-16 17:20:28.182,null,0,0,0,0,null,0,0.0879364,100.6663,192.168.1.3,10.191.100.224,1,0
2015-02-16 17:20:29.296,37,1424136025.950518,37.77933603749697,-122.4387459588775,55.02693,-1,-1,10,65,-9999,1424136029.186579,-13.01479339599609,-41.99629211425781,13.9337158203125,162.6573944091797,148.8764343261719,25,526928.9230257916,0.2670745849609375,-0.9282379150390625,-0.1290130615234375,526928.8442347917,0.1008224851804378,0.6943215162261555,-0.2386740947895554,526928.8442347917,1.814813065114398,0.01089171077973337,1.366970110815493,0.1177325174212456,0.6864222288131714,-0.2482520788908005,-0.09023258835077286,0.02339715510606766,0.03364371880888939,XTrueNorthZVertical,0.3855388412550486,0.5001568135347579,0.6130351755990393,0.4747534809565201,0.002204634016379714,-0.9792992472648621,-0.2024059295654297,-13.77248477935791,-42.44003295898438,13.53151607513428,1,526927.8865827917,unknown,2,2015-02-16 17:20:28.182,null,0,0,0,0,null,0,0.0879364,100.6663,192.168.1.3,10.191.100.224,1,0
2015-02-16 17:20:29.385,38,1424136025.950518,37.77933603749697,-122.4387459588775,55.02693,-1,-1,10,65,-9999,1424136029.303027,-11.83253860473633,-43.24507141113281,13.86669921875,163.9847412109375,150.2037811279297,25,526929.0222717917,-0.0400390625,-0.98504638671875,-0.0148468017578125,526928.9441677917,0.1128655659458851,0.1111342449212246,-0.07079321336092234,526928.9441677917,1.711716358751356,0.172021669287225,1.383453485199097,0.1297752559185028,0.1032351478934288,-0.08037101477384567,0.2011511325836182,0.03665603697299957,-0.09900109469890594,XTrueNorthZVertical,0.3666626823359434,0.5232670598515452,0.6153358416247185,0.4616404379082654,0.03188109025359154,-0.9825025796890259,-0.1835001260042191,-13.68881702423096,-42.50739288330078,13.40438079833984,1,526927.8865827917,unknown,2,2015-02-16 17:20:28.182,null,0,0,0,0,null,0,0.0879364,100.6663,192.168.1.3,10.191.100.224,1,0
2015-02-16 17:20:29.485,39,1424136025.950518,37.77933603749697,-122.4387459588775,55.02693,-1,-1,10,65,-9999,1424136029.421517,-11.27619171142578,-42.20443725585938,14.26919555664062,165.2468109130859,151.4658508300781,25,526929.1215167918,0.00103759765625,-0.9660797119140625,-0.1249847412109375,526929.0441077917,0.1600072456658138,0.7551667576511958,-0.04919870534590583,526929.0441077917,1.666252597268621,0.1729618761016263,1.381620231987425,0.1769165992736816,0.7472678422927856,-0.05877631902694702,0.03184545040130615,0.01859749108552933,0.09804008156061172,XTrueNorthZVertical,0.3776669210098226,0.5145344187095786,0.6052514721792083,0.4757023382396416,0.03236353397369385,-0.9821594953536987,-0.1852440536022186,-12.65757846832275,-42.62675094604492,14.02446174621582,1,526927.8865827917,unknown,2,2015-02-16 17:20:28.182,null,0,0,0,0,null,0,0.0879364,100.6663,192.168.1.3,10.191.100.224,1,0
2015-02-16 17:20:29.584,40,1424136025.950518,37.77933603749697,-122.4387459588775,55.02693,-1,-1,10,65,-9999,1424136029.540286,-10.6502799987793,-41.99632263183594,15.54391479492188,167.5205535888672,153.7395935058594,25,526929.2207567916,0.12353515625,-0.984039306640625,-0.2078399658203125,526929.1440397917,-0.01429797926041741,-0.4405686033445714,-0.1178198445217595,526929.1440397917,1.625250181469164,0.1637898215894004,1.380951706464289,0.002611039904877543,-0.4484673738479614,-0.1273972690105438,-0.06659781932830811,0.001778441132046282,0.08142928034067154,XTrueNorthZVertical,0.3906724773536195,0.5042663782484075,0.59372584081642,0.4904896447398858,0.03077018260955811,-0.9820335507392883,-0.1861808747053146,-12.2509880065918,-42.6300163269043,14.37131690979004,1,526927.8865827917,unknown,2,2015-02-16 17:20:28.182,null,0,0,0,0,null,0,0.0879364,100.6663,192.168.1.3,10.191.100.224,1,0
2015-02-16 17:20:29.696,41,1424136025.950518,37.77933603749697,-122.4387459588775,55.02693,-1,-1,10,65,-9999,1424136029.659062,-9.433242797851562,-43.14102172851562,15.1749267578125,169.4473876953125,155.6664276123047,25,526929.3200007917,0.0720367431640625,-0.9741668701171875,-0.159881591796875,526929.2439797916,-0.08015076248313376,-0.9812907058037528,0.02680418373942952,526929.2439797916,1.587812414073528,0.1813480663387701,1.3848529647623,-0.06324207782745361,-0.9891893267631531,0.01722695305943489,0.04911544546484947,0.02002424746751785,0.04948745295405388,XTrueNorthZVertical,0.396025974902377,0.5022373271338586,0.5871424583093167,0.4961701910939001,0.03334305062890053,-0.9827622771263123,-0.1818421930074692,-11.57978248596191,-42.66455078125,14.81838417053223,1,526927.8865827917,unknown,2,2015-02-16 17:20:28.182,null,0,0,0,0,null,0,0.0879364,100.6663,192.168.1.3,10.191.100.224,1,0
2015-02-16 17:20:29.783,42,1424136025.950518,37.77933603749697,-122.4387459588775,55.02693,-1,-1,10,65,-9999,1424136029.777835,-9.502792358398438,-42.16975402832031,15.44329833984375,170.4674377441406,156.6864776611328,25,526929.4192367917,-0.06854248046875,-0.9951934814453125,-0.1917572021484375,526929.3439147917,0.04310352855904147,-0.4462648386001419,0.2049536816991901,526929.3439147917,1.636489645214835,0.08830421065926228,1.388546870889489,0.06001187115907669,-0.4541633129119873,0.1953766494989395,0.05858602747321129,0.003000252414494753,-0.007818294689059258,XTrueNorthZVertical,0.4121376089861669,0.4897698362502681,0.5797340059257065,0.5041593117016584,0.01598367281258106,-0.9834384918212891,-0.1805361956357956,-10.84637928009033,-42.58005142211914,15.59599494934082,1,526927.8865827917,unknown,2,2015-02-16 17:20:28.182,null,0,0,0,0,null,0,0.0879364,100.6663,192.168.1.3,10.191.100.224,1,0
2015-02-16 17:20:29.881,43,1424136025.950518,37.77933603749697,-122.4387459588775,55.02693,-1,-1,10,65,-9999,1424136029.777835,-9.502792358398438,-42.16975402832031,15.44329833984375,170.4674377441406,156.6864776611328,25,526929.5184837917,-0.053924560546875,-0.975006103515625,-0.15032958984375,526929.4438517917,0.03974634768888759,-0.213018266112168,0.1258599278527088,526929.4438517917,1.73029041025199,-0.06399471941216632,1.391669523574946,0.05665435269474983,-0.2209165841341019,0.11628308147192,0.01629226468503475,0.02887574397027493,0.04561895877122879,XTrueNorthZVertical,0.4342023088192243,0.4717684082280029,0.5706283981026697,0.5131142034054967,-0.01139419432729483,-0.9839996695518494,-0.1778058409690857,-10.59367847442627,-42.36848831176758,16.32864952087402,1,526927.8865827917,unknown,2,2015-02-16 17:20:28.182,null,0,0,0,0,null,0,0.0793457,100.6664,192.168.1.3,10.191.100.224,1,0
2015-02-16 17:20:29.982,44,1424136025.950518,37.77933603749697,-122.4387459588775,55.02693,-1,-1,10,65,-9999,1424136029.896084,-9.189834594726562,-42.20445251464844,16.68447875976562,172.7809906005859,159.0000305175781,25,526929.6177197917,-0.0467681884765625,-0.9810791015625,-0.18829345703125,526929.5437877917,-0.002007224513592722,0.2780305556948554,0.0199774366011204,526929.5437877917,1.763361440090982,-0.1189749670360169,1.390818725758653,0.01490045804530382,0.2701323926448822,0.01040077302604914,0.01483853254467249,0.02515324391424656,-0.01714301481842995,XTrueNorthZVertical,0.4419022444949744,0.4645979839526124,0.5673194917670737,0.5167395323779931,-0.02124722301959991,-0.9838476777076721,-0.1777422428131104,-10.41463279724121,-42.27229309082031,16.68916320800781,1,526927.8865827917,unknown,2,2015-02-16 17:20:28.182,null,0,0,0,0,null,0,0.0793457,100.6664,192.168.1.3,10.191.100.224,1,0
2015-02-16 17:20:30.082,45,1424136025.950518,37.77933603749697,-122.4387459588775,55.02693,-1,-1,10,65,-9999,1424136029.996918,-9.502784729003906,-42.10038757324219,16.38259887695312,172.1587829589844,158.3778228759766,25,526929.7169757917,0.0098419189453125,-0.96051025390625,-0.174468994140625,526929.6437217917,-0.06735374081308501,0.03811223204401497,-0.06698222984101895,526929.6437217917,1.73867373596877,-0.09704960989602904,1.387003968609553,-0.05044639483094215,0.03021422773599625,-0.07655870169401169,-0.0432346947491169,0.009784262627363205,0.007430510595440865,XTrueNorthZVertical,0.4405281675695326,0.4636649450636512,0.5667482482430248,0.519370971323985,-0.0177089087665081,-0.9831576943397522,-0.1818995028734207,-10.31187915802002,-42.36090850830078,16.52749633789062,1,526927.8865827917,unknown,2,2015-02-16 17:20:28.182,null,0,0,0,0,null,0,0.0793457,100.6664,192.168.1.3,10.191.100.224,1,0
2015-02-16 17:20:30.180,46,1424136025.950518,37.77933603749697,-122.4387459588775,55.02693,-1,-1,10,65,-9999,1424136030.113241,-8.911659240722656,-42.27384948730469,16.41616821289062,172.9644012451172,159.1834411621094,25,526929.8162097917,0.0890045166015625,-0.968536376953125,-0.163360595703125,526929.7436447917,-0.04713582076553045,0.1961143837251081,-0.09704399222583339,526929.7436447917,1.658665386007033,0.01232474784102353,1.385510490760525,-0.03024866990745068,0.1881737411022186,-0.1066223233938217,-0.00564269395545125,-0.002849400276318192,0.001016606111079454,XTrueNorthZVertical,0.4278251613472595,0.474192806289874,0.5701308402986845,0.5167762273605926,0.00227050157263875,-0.982883632183075,-0.1842136234045029,-10.32532215118408,-42.48163604736328,16.20611572265625,1,526927.8865827917,unknown,2,2015-02-16 17:20:28.182,null,0,0,0,0,null,0,0.0793457,100.6664,192.168.1.3,10.191.100.224,1,0
2015-02-16 17:20:30.279,47,1424136025.950518,37.77933603749697,-122.4387459588775,55.02693,-1,-1,10,65,-9999,1424136030.232954,-8.946434020996094,-42.51664733886719,15.64468383789062,171.5774688720703,157.7965087890625,25,526929.9154537917,0.070068359375,-0.960906982421875,-0.2090301513671875,526929.8435947917,-0.008371114254446069,0.3671708184375516,0.02417031742134115,526929.8435947917,1.612463731886965,0.1027715989352389,1.388426417446525,0.008527358993887901,0.3592299520969391,0.01459082961082458,0.08422303199768066,0.009356588125228882,-0.03511123359203339,XTrueNorthZVertical,0.4137974815085386,0.4884359661875103,0.5766705898775587,0.5075953235063717,0.01860594935715199,-0.9834166169166565,-0.1804039031267166,-10.30974006652832,-42.59558868408203,15.91429328918457,1,526927.8865827917,unknown,2,2015-02-16 17:20:28.182,null,0,0,0,0,null,0,0.0793457,100.6664,192.168.1.3,10.191.100.224,1,0
2015-02-16 17:20:30.378,48,1424136025.950518,37.77933603749697,-122.4387459588775,55.02693,-1,-1,10,65,-9999,1424136030.351565,-9.746208190917969,-42.62069702148438,15.74526977539062,170.0542755126953,156.2733154296875,25,526930.0147017917,-0.0423583984375,-0.9883270263671875,-0.193206787109375,526929.9435227917,-0.02945695850125745,0.05445738323437629,0.1407203667353509,526929.9435227917,1.667008965247105,0.06330777715456755,1.389153836289928,-0.0125588234513998,0.04651668295264244,0.1311410665512085,0.03939840197563171,0.00463595800101757,-0.01745510473847389,XTrueNorthZVertical,0.4120865975118771,0.4899416956347589,0.5821180490504807,0.5012787432585677,0.01142862252891064,-0.9835482835769653,-0.1802835464477539,-11.10404777526855,-42.50003814697266,15.63286685943604,1,526927.8865827917,unknown,2,2015-02-16 17:20:28.182,null,0,0,0,0,null,0,0.0793457,100.6664,192.168.1.3,10.191.100.224,1,0
2015-02-16 17:20:30.477,49,1424136025.950518,37.77933603749697,-122.4387459588775,55.02693,-1,-1,10,65,-9999,1424136030.470172,-9.468032836914062,-42.82884216308594,15.47698974609375,170.4918670654297,156.7109069824219,25,526930.1139457917,-0.010986328125,-0.97198486328125,-0.1630706787109375,526930.0434507917,0.01298291031413629,0.2080541338402603,0.04877952379032736,526930.0434507917,1.706315914741451,0.03019907976130802,1.390082665420611,0.02988272160291672,0.2001141309738159,0.03919600695371628,-0.04363491758704185,0.02547898143529892,-0.01779888197779655,XTrueNorthZVertical,0.4123587570035768,0.4900360512988921,0.5848945237444074,0.4977181436187177,0.005426909774541855,-0.9837156534194946,-0.1796498447656631,-11.53506660461426,-42.40069198608398,15.59048461914062,1,526927.8865827917,unknown,2,2015-02-16 17:20:28.182,null,0,0,0,0,null,0,0.0793457,100.6664,192.168.1.3,10.191.100.224,1,0
2015-02-16 17:20:30.579,50,1424136025.950518,37.77933603749697,-122.4387459588775,55.02693,-1,-1,10,65,-9999,1424136030.470172,-9.468032836914062,-42.82884216308594,15.47698974609375,170.4918670654297,156.7109069824219,25,526930.2131997917,-0.0084991455078125,-0.9734344482421875,-0.195587158203125,526930.1434037917,-0.02980636523627584,0.06265778886294829,0.01281619642989733,526930.1434037917,1.754169407750833,-0.007100773902743782,1.392057911887086,-0.01290736068040133,0.05471530184149742,0.003251896472647786,-0.04881692305207253,0.02146806195378304,0.00719062564894557,XTrueNorthZVertical,0.412056837655227,0.4912404898097577,0.5885735005623739,0.4924156867854649,-0.001262424397282302,-0.984068751335144,-0.1777838915586472,-11.88257312774658,-42.32500457763672,15.53506660461426,1,526927.8865827917,unknown,2,2015-02-16 17:20:28.182,null,0,0,0,0,null,0,0.0793457,100.6664,192.168.1.3,10.191.100.224,1,0
2015-02-16 17:20:30.676,51,1424136025.950518,37.77933603749697,-122.4387459588775,55.02693,-1,-1,10,65,-9999,1424136030.588976,-10.78938293457031,-41.92698669433594,15.40988159179688,168.0290222167969,154.2480621337891,25,526930.3124677917,-0.0234375,-0.9668426513671875,-0.203857421875,526930.2433507917,-0.09623811967997542,0.0507939388388633,-0.1020800298471732,526930.2433507917,1.757748969839719,0.009040750293198041,1.387571368248073,-0.07934659719467163,0.04284963011741638,-0.1116268336772919,1.599101960891858e-05,0.01213084347546101,0.001865813508629799,XTrueNorthZVertical,0.4053019353157737,0.4946041345541247,0.59385422746204,0.4882973256944185,0.001647216966375709,-0.9832612276077271,-0.1821941882371902,-12.441650390625,-42.3012809753418,15.15739440917969,1,526927.8865827917,unknown,2,2015-02-16 17:20:28.182,null,0,0,0,0,null,0,0.0793457,100.6664,192.168.1.3,10.191.100.224,1,0
2015-02-16 17:20:30.774,52,1424136025.950518,37.77933603749697,-122.4387459588775,55.02693,-1,-1,10,65,-9999,1424136030.707098,-10.30255889892578,-42.34323120117188,14.73904418945312,168.2038421630859,154.4228820800781,25,526930.4116937917,0.064208984375,-0.9539947509765625,-0.178741455078125,526930.3432757917,-0.1498771135113704,0.5045995180655646,-0.261179936529597,526930.3432757917,1.656940630322372,0.1266390516735554,1.375235547740595,-0.1329821348190308,0.4966544508934021,-0.2707223892211914,0.02149339579045773,0.0228242315351963,0.01974128186702728,XTrueNorthZVertical,0.3921655435454848,0.4998258108864231,0.5954540133364673,0.4917467779991065,0.02454237081110477,-0.9809388518333435,-0.1927606910467148,-11.9693660736084,-42.65254974365234,14.54077339172363,1,526927.8865827917,unknown,2,2015-02-16 17:20:28.182,null,0,0,0,0,null,0,0.0793457,100.6664,192.168.1.3,10.191.100.224,1,0
2015-02-16 17:20:30.874,53,1424136025.950518,37.77933603749697,-122.4387459588775,55.02693,-1,-1,10,65,-9999,1424136030.825934,-9.085533142089844,-43.41854858398438,13.69915771484375,169.1737823486328,155.392822265625,25,526930.5109637917,0.09686279296875,-0.96429443359375,-0.22637939453125,526930.4432087917,-0.1433907183603734,0.4601124773202269,-0.2249172698626421,526930.4432087917,1.529404334750753,0.2827283488363773,1.348371303102635,-0.1265064626932144,0.4521694481372833,-0.2344671189785004,0.02888253144919872,-0.000205310367164202,0.06265236437320709,XTrueNorthZVertical,0.3697635877116163,0.5073027864570141,0.5989246573851713,0.4972002184987874,0.06154105067253113,-0.9753653407096863,-0.2118375450372696,-11.12546157836914,-43.22006225585938,13.49777793884277,1,526927.8865827917,unknown,2,2015-02-16 17:20:28.182,null,0,0,0,0,null,0,0.0793457,100.6664,192.168.1.3,10.191.100.224,1,0
2015-02-16 17:20:30.981,54,1424136025.950518,37.77933603749697,-122.4387459588775,55.02693,-1,-1,10,65,-9999,1424136030.926839,-7.416481018066406,-43.97354125976562,13.16253662109375,171.0945587158203,157.3135986328125,25,526930.6102227917,0.221038818359375,-0.780975341796875,-0.3118438720703125,526930.5431317918,-0.404627912853407,0.4902738419298103,-0.6099869276705072,526930.5431317918,1.415252797973774,0.4154363709610487,1.311969092633093,-0.3877440094947815,0.4823309481143951,-0.6195365786552429,0.07838890701532364,0.09384229779243469,-0.01770050078630447,XTrueNorthZVertical,0.3473028787531138,0.5121450430920166,0.5996294000602598,0.5074768746189855,0.1032974943518639,-0.9666908383369446,-0.2341763377189636,-9.738792419433594,-43.97217559814453,12.06414794921875,1,526927.8865827917,unknown,2,2015-02-16 17:20:28.182,null,0,0,0,0,null,0,0.0793457,100.6664,192.168.1.3,10.191.100.224,1,0
2015-02-16 17:20:31.073,55,1424136025.950518,37.77933603749697,-122.4387459588775,55.02693,-1,-1,10,65,-9999,1424136031.049521,-3.765388488769531,-44.56326293945312,9.64031982421875,173.1378173828125,159.3568572998047,25,526930.7094767917,0.3112640380859375,-0.86090087890625,-0.369720458984375,526930.6430847917,-0.7688045392773826,0.9730250527284738,-1.244601171205413,526930.6430847917,1.232717595060531,0.6557360987012905,1.21516723431187,-0.7519209980964661,0.9650822877883911,-1.254150629043579,0.06341066211462021,0.06007778272032738,0.02398376539349556,XTrueNorthZVertical,0.2881845342014175,0.5281722923744224,0.5993398869205071,0.5279918883891843,0.2123004049062729,-0.9374276399612427,-0.2759674191474915,-6.890247821807861,-45.09604644775391,9.633822441101074,1,526927.8865827917,unknown,2,2015-02-16 17:20:28.182,null,0,0,0,0,null,0,0.0793457,100.6664,192.168.1.3,10.191.100.224,1,0
2015-02-16 17:20:31.174,56,1424136025.950518,37.77933603749697,-122.4387459588775,55.02693,-1,-1,10,65,-9999,1424136031.163363,3.536781311035156,-45.95077514648438,4.60858154296875,179.0590209960938,165.2780609130859,25,526930.8087257918,0.412933349609375,-0.79010009765625,-0.4691314697265625,526930.7430137917,-0.9239113022213415,0.2037099854701231,-1.351010968352837,526930.7430137917,1.131901722209094,0.7877751253593075,1.056303461786893,-0.9070454239845276,0.1957255899906158,-1.360558390617371,-0.1384463310241699,-0.06512655317783356,0.1185426339507103,XTrueNorthZVertical,0.2150411802899109,0.5293297780841276,0.5909335086131922,0.5695304167949559,0.3487887382507324,-0.8705424070358276,-0.3471345603466034,-1.791886329650879,-46.21889877319336,5.877261161804199,1,526927.8865827917,unknown,2,2015-02-16 17:20:28.182,null,0,0,0,0,null,0,-0.4447365,100.6727,192.168.1.3,10.191.100.224,1,0
2015-02-16 17:20:31.273,57,1424136025.950518,37.77933603749697,-122.4387459588775,55.02693,-1,-1,10,65,-9999,1424136031.264306,10.21306610107422,-44.77140808105469,1.92498779296875,185.1864166259766,171.4054565429688,25,526930.9079557917,0.47088623046875,-0.8302459716796875,-0.37152099609375,526930.8429597917,-0.7137761743052933,0.5567974754311177,-1.359455852169478,526930.8429597917,1.065457583035589,0.8776830995678675,0.9036655635114007,-0.6969106197357178,0.5488132238388062,-1.369003176689148,0.01721125654876232,0.1051497533917427,0.06500895321369171,XTrueNorthZVertical,0.146331653133415,0.530020222811314,0.573429301577955,0.6073256764189291,0.475968062877655,-0.7856001853942871,-0.3953312337398529,5.786737442016602,-46.24118804931641,1.485304832458496,1,526927.8865827917,unknown,2,2015-02-16 17:20:28.182,null,0,0,0,0,null,0,-0.4447365,100.6727,192.168.1.3,10.191.100.224,1,0
2015-02-16 17:20:31.395,58,1424136025.950518,37.77933603749697,-122.4387459588775,55.02693,-1,-1,10,65,-9999,1424136031.364619,15.22026062011719,-43.31449890136719,-1.0938720703125,189.9609222412109,176.1799621582031,25,526931.0072167917,0.543212890625,-0.67742919921875,-0.44378662109375,526930.9428927917,-0.7016702429381201,0.1656637998211421,-1.186438798262519,526930.9428927917,1.046595167733742,0.9049281322978225,0.767411425618073,-0.6848050355911255,0.1576797068119049,-1.195985913276672,-0.02350111119449139,-0.05763280391693115,-0.0322723351418972,XTrueNorthZVertical,0.08904089104718232,0.5193977761007986,0.5585306182803683,0.6405788388559385,0.5659663081169128,-0.6942745447158813,-0.4445953369140625,9.787495613098145,-45.57476806640625,-1.041688919067383,1,526927.8865827917,unknown,2,2015-02-16 17:20:28.182,null,0,0,0,0,null,0,-0.4447365,100.6727,192.168.1.3,10.191.100.224,1,0
2015-02-16 17:20:31.485,59,1424136025.950518,37.77933603749697,-122.4387459588775,55.02693,-1,-1,10,65,-9999,1424136031.364619,15.22026062011719,-43.31449890136719,-1.0938720703125,189.9609222412109,176.1799621582031,25,526931.1064377917,0.65106201171875,-0.5189361572265625,-0.5153350830078125,526931.0428277917,-0.8728292093525317,0.07840292985971475,-1.376617794866167,526931.0428277917,1.017627071812773,0.9399167168848174,0.6200009523062479,-0.8559643030166626,0.07041899859905243,-1.386164784431458,-0.0836968868970871,0.0007594463531859219,0.05996520817279816,XTrueNorthZVertical,0.02744606886881584,0.5091282929865089,0.5342719247442007,0.6742318855245745,0.6572137475013733,-0.5810359120368958,-0.4800702035427094,16.56709671020508,-43.34577178955078,-4.54035758972168,1,526927.8865827917,unknown,2,2015-02-16 17:20:28.182,null,0,0,0,0,null,0,-0.4447365,100.6727,192.168.1.3,10.191.100.224,1,0
2015-02-16 17:20:31.569,60,1424136025.950518,37.77933603749697,-122.4387459588775,55.02693,-1,-1,10,65,-9999,1424136031.485898,22.90491485595703,-40.15788269042969,-4.951416015625,196.5572204589844,182.7762603759766,25,526931.2056947917,0.7173614501953125,-0.298248291015625,-0.5397796630859375,526931.1427717917,-1.030643874492883,0.005368133809272721,-1.368610734732735,526931.1427717917,1.00723010159672,0.9571391263097164,0.4469799642126573,-1.013779282569885,-0.002615640871226788,-1.378157496452332,0.05697588622570038,0.01418386958539486,0.07069354504346848,XTrueNorthZVertical,-0.04440387684669854,0.4882468154237823,0.5071165108849536,0.7088555690554976,0.7372288107872009,-0.4322441816329956,-0.5192866921424866,23.00007438659668,-39.70023345947266,-8.296244621276855,1,526927.8865827917,unknown,2,2015-02-16 17:20:28.182,null,0,0,0,0,null,0,-0.4447365,100.6727,192.168.1.3,10.191.100.224,1,0
2015-02-16 17:20:31.668,61,1424136025.950518,37.77933603749697,-122.4387459588775,55.02693,-1,-1,10,65,-9999,1424136031.600777,29.05960845947266,-35.12811279296875,-8.80889892578125,205.8144073486328,192.033447265625,25,526931.3049437917,0.887359619140625,-0.192657470703125,-0.6832427978515625,526931.2427107916,-0.863866074387761,0.2378660917148253,-1.233986343732575,526931.2427107916,1.003973612386306,0.9514817001643715,0.2753969889424279,-0.8470019102096558,0.2298824787139893,-1.24353289604187,0.1005323752760887,0.006120882462710142,0.01110267452895641,XTrueNorthZVertical,-0.1113205407110572,0.4564056252566294,0.4787979615573132,0.7416563792633813,0.7835924029350281,-0.271928995847702,-0.5586032867431641,26.94209289550781,-36.24921035766602,-11.57833194732666,1,526927.8865827917,unknown,2,2015-02-16 17:20:28.182,null,0,0,0,0,null,0,-0.4447365,100.6727,192.168.1.3,10.191.100.224,1,0
2015-02-16 17:20:31.776,62,1424136025.950518,37.77933603749697,-122.4387459588775,55.02693,-1,-1,10,65,-9999,1424136031.719722,33.61476135253906,-31.00025939941406,-10.72100830078125,211.4808959960938,197.6999359130859,25,526931.4041977917,0.8531646728515625,-0.1215667724609375,-0.576141357421875,526931.3426417917,-0.2591753751770944,0.1329974658902301,-0.4203506832970169,526931.3426417917,1.001852636326826,0.950654252139257,0.179206854776962,-0.242311492562294,0.1250140070915222,-0.4298970401287079,0.05952725186944008,0.1134298518300056,0.04733826965093613,XTrueNorthZVertical,-0.1491010972664262,0.4380033338083139,0.4612065879390612,0.7571066345317308,0.8007632493972778,-0.178249180316925,-0.5718438625335693,31.11715316772461,-31.72411346435547,-14.11534690856934,1,526927.8865827917,unknown,2,2015-02-16 17:20:28.182,null,0,0,0,0,null,0,-0.4447365,100.6727,192.168.1.3,10.191.100.224,1,0
2015-02-16 17:20:31.867,63,1424136025.950518,37.77933603749697,-122.4387459588775,55.02693,-1,-1,10,65,-9999,1424136031.838021,33.6495361328125,-30.27177429199219,-10.4190673828125,211.8597869873047,198.0788269042969,25,526931.5034497917,0.925689697265625,-0.160400390625,-0.459381103515625,526931.4425557917,0.2825917516938341,0.3496014120940809,0.3601110447038605,526931.4425557917,0.9932067402497496,0.9758481231850887,0.1834074153913773,0.2994552850723267,0.3416181206703186,0.3505648374557495,0.06190287694334984,0.05530569702386856,-0.04796383529901505,XTrueNorthZVertical,-0.1512960513389573,0.4489728845939959,0.4568208158702192,0.7528928385765521,0.8142873048782349,-0.182380884885788,-0.5510656833648682,31.77002906799316,-31.38548278808594,-13.39986515045166,1,526927.8865827917,unknown,2,2015-02-16 17:20:28.182,null,0,0,0,0,null,0,-0.4447365,100.6727,192.168.1.3,10.191.100.224,4,0
2015-02-16 17:20:31.966,64,1424136031.959704,37.77915916215708,-122.4387326892296,55.93147,-1,-1,10,65,-9999,1424136031.956886,32.43247985839844,-33.01213073730469,-8.03759765625,209.5305023193359,195.7495422363281,25,526931.6026997917,0.822265625,-0.3065643310546875,-0.5518341064453125,526931.5424907916,0.6274133222634407,0.04176715432403972,0.9200012491088873,526931.5424907916,0.9944443660854313,0.9987561973633908,0.2645030516915534,0.64427649974823,0.03378401696681976,0.9104552865028381,0.1782649010419846,0.1018684804439545,0.06249981746077538,XTrueNorthZVertical,-0.1246789201096104,0.4724344091531836,0.4705816141666696,0.7347202670270367,0.8115574717521667,-0.261429637670517,-0.5225217938423157,30.31074714660645,-33.50424957275391,-11.5179615020752,1,526927.8865827917,unknown,2,2015-02-16 17:20:28.182,null,0,0,0,0,null,0,-0.4447365,100.6727,192.168.1.3,10.191.100.224,4,0
2015-02-16 17:20:32.067,65,1424136031.959704,37.77915916215708,-122.4387326892296,55.93147,-1,-1,10,65,-9999,1424136031.956886,32.43247985839844,-33.01213073730469,-8.03759765625,209.5305023193359,195.7495422363281,25,526931.7019527917,0.88519287109375,-0.327789306640625,-0.3979339599609375,526931.6424277917,0.7099510760316124,0.06518725926630554,1.462226706003418,526931.6424277917,0.9891727506561553,1.014303614013429,0.3994323124635766,0.7268139123916626,0.05720429122447968,1.452680945396423,-0.01110844872891903,-0.06982956826686859,-0.05040149018168449,XTrueNorthZVertical,-0.07332044386798564,0.5013066099919976,0.4914840709787112,0.7083496549777728,0.7822723984718323,-0.3888953924179077,-0.4866316020488739,26.63895988464355,-37.33958053588867,-8.370251655578613,1,526927.8865827917,unknown,2,2015-02-16 17:20:28.182,null,0,0,0,0,null,0,-0.4447365,100.6727,192.168.1.3,10.191.100.224,4,0
