loggingTime,loggingSample,locationTimestamp_since1970,locationLatitude,locationLongitude,locationAltitude,locationSpeed,locationCourse,locationVerticalAccuracy,locationHorizontalAccuracy,locationFloor,locationHeadingTimestamp_since1970,locationHeadingX,locationHeadingY,locationHeadingZ,locationTrueHeading,locationMagneticHeading,locationHeadingAccuracy,accelerometerTimestamp_sinceReboot,accelerometerAccelerationX,accelerometerAccelerationY,accelerometerAccelerationZ,gyroTimestamp_sinceReboot,gyroRotationX,gyroRotationY,gyroRotationZ,motionTimestamp_sinceReboot,motionYaw,motionRoll,motionPitch,motionRotationRateX,motionRotationRateY,motionRotationRateZ,motionUserAccelerationX,motionUserAccelerationY,motionUserAccelerationZ,motionAttitudeReferenceFrame,motionQuaternionX,motionQuaternionY,motionQuaternionZ,motionQuaternionW,motionGravityX,motionGravityY,motionGravityZ,motionMagneticFieldX,motionMagneticFieldY,motionMagneticFieldZ,motionMagneticFieldCalibrationAccuracy,activityTimestamp_sinceReboot,activity,activityActivityConfidence,activityActivityStartDate,pedometerStartDate,pedometerNumberofSteps,pedometerDistance,pedometerFloorAscended,pedometerFloorDescended,pedometerEndDate,altimeterTimestamp_sinceReboot,altimeterReset,altimeterRelativeAltitude,altimeterPressure,IP_en0,IP_pdp_ip0,deviceOrientation,state
2015-02-11 00:14:38.213,1,1423642478.064168,37.77937271635773,-122.4387669191905,63.29776,0.49,240.8203125,4,10,-9999,1423642478.18881,26.99536895751953,-18.57759094238281,-36.3331298828125,267.8484497070312,254.0657348632812,25,321258.8136636667,0.127960205078125,-0.311767578125,-0.991973876953125,321258.7768026667,-0.4319460866832219,-0.1301127297974563,-0.01669322634483468,321258.7768026667,-2.229534578288977,0.1538964754741119,0.3017835890966873,-0.4115966260433197,-0.1378773003816605,-0.0262458547949791,0.01010139845311642,-0.03204574435949326,-0.03793728351593018,XTrueNorthZVertical,-0.134235343069568,0.1010902010335936,0.8798915761064309,-0.4444687520043543,0.146362230181694,-0.2972236573696136,-0.9435232877731323,25.53046035766602,-15.95532989501953,-36.63172912597656,1,321256.9318126667,walking,0,2015-02-11 00:14:36.241,2015-02-11 00:12:28.580,55,35.85,0,0,2015-02-11 00:13:40.429,0,0.2064571,101.1209,192.168.1.3,10.42.194.158,5,0
2015-02-11 00:14:38.307,2,1423642478.064168,37.77937271635773,-122.4387669191905,63.29776,0.49,240.8203125,4,10,-9999,1423642478.18881,26.99536895751953,-18.57759094238281,-36.3331298828125,267.8484497070312,254.0657348632812,25,321258.9128686667,0.08502197265625,-0.284088134765625,-0.983184814453125,321258.8767506667,-0.0864808300781431,-0.5823734092758026,0.01469905132058335,321258.8767506667,-2.228876430724438,0.09943042693162708,0.2858907480455759,-0.06613008677959442,-0.5901386141777039,0.005146973766386509,-0.004401950165629387,-0.007019826211035252,-0.05275885760784149,XTrueNorthZVertical,-0.1068557176996198,0.1060460687729058,0.8842902376820887,-0.4420032530629738,0.09523752331733704,-0.2820121645927429,-0.9546721577644348,23.95527648925781,-15.23211860656738,-37.97878265380859,1,321256.9318126667,walking,0,2015-02-11 00:14:36.241,2015-02-11 00:12:28.580,55,35.85,0,0,2015-02-11 00:13:40.429,0,0.2064571,101.1209,192.168.1.3,10.42.194.158,5,0
2015-02-11 00:14:38.397,3,1423642478.064168,37.77937271635773,-122.4387669191905,63.29776,0.49,240.8203125,4,10,-9999,1423642478.307715,24.10756683349609,-17.84901428222656,-37.10394287109375,267.1739807128906,253.3912658691406,25,321259.0120506667,0.042327880859375,-0.26507568359375,-0.9427490234375,321258.9767006667,-0.03296407534078279,-0.2046231834079112,0.05252872197294091,321258.9767006667,-2.219348624488057,0.06225174877592208,0.2837628150356359,-0.01261687185615301,-0.2123892307281494,0.04297657310962677,-0.01730419881641865,0.000886705529410392,-0.00933430902659893,XTrueNorthZVertical,-0.09047886318210259,0.1128670434719293,0.8841675194030457,-0.4442098791486185,0.0597236342728138,-0.2799699604511261,-0.9581491947174072,22.17474746704102,-15.26019287109375,-39.03418350219727,1,321256.9318126667,walking,0,2015-02-11 00:14:36.241,2015-02-11 00:12:28.580,55,35.85,0,0,2015-02-11 00:13:40.429,0,0.2064571,101.1209,192.168.1.3,10.42.194.158,5,0
2015-02-11 00:14:38.496,4,1423642478.064168,37.77937271635773,-122.4387669191905,63.29776,0.49,240.8203125,4,10,-9999,1423642478.428848,22.82022094726562,-18.64697265625,-37.87469482421875,265.8036499023438,252.0209350585938,25,321259.1112306667,0.0263671875,-0.2621917724609375,-0.9409332275390625,321259.0766486667,-0.1298384242051781,-0.02724280637096557,0.09527352273314872,321259.0766486667,-2.208382391226751,0.04043113219308525,0.2900473677767346,-0.1094936802983284,-0.03501130640506744,0.08572171628475189,-0.02448007464408875,0.001192316762171686,0.02396029978990555,XTrueNorthZVertical,-0.08286196936038599,0.1200428039376795,0.8822305785296034,-0.4476525872249655,0.03873178362846375,-0.2859976291656494,-0.9574472308158875,21.21625709533691,-15.72768402099609,-39.37982559204102,1,321256.9318126667,walking,0,2015-02-11 00:14:36.241,2015-02-11 00:12:28.580,55,35.85,0,0,2015-02-11 00:13:40.429,0,0.2064571,101.1209,192.168.1.3,10.42.194.158,5,0
2015-02-11 00:14:38.657,5,1423642478.064168,37.77937271635773,-122.4387669191905,63.29776,0.49,240.8203125,4,10,-9999,1423642478.52887,22.61146545410156,-18.92451477050781,-38.0758056640625,265.5813293457031,251.7985992431641,25,321259.2104106667,0.0456390380859375,-0.277069091796875,-0.9604949951171875,321259.1766026667,0.05346136098668666,0.005369199073708752,0.05205894035665094,321259.1766026667,-2.198878008375972,0.04008612429058311,0.2869038609522345,0.07379879057407379,-0.002397803822532296,0.04250669106841087,0.01222188677638769,0.001077875029295683,-0.01010595727711916,XTrueNorthZVertical,-0.08257753773820353,0.1183380224741641,0.8803230733261892,-0.4518941939800934,0.03843729197978973,-0.2829839885234833,-0.958354115486145,21.02340698242188,-15.63064956665039,-39.52163314819336,1,321256.9318126667,walking,0,2015-02-11 00:14:36.241,2015-02-11 00:12:28.580,55,35.85,0,0,2015-02-11 00:13:40.429,0,0.2064571,101.1209,192.168.1.3,10.42.194.158,5,0
2015-02-11 00:14:38.736,6,1423642478.064168,37.77937271635773,-122.4387669191905,63.29776,0.49,240.8203125,4,10,-9999,1423642478.629978,21.42848968505859,-19.06329345703125,-38.2769775390625,265.1907653808594,251.4080352783203,25,321259.3095966667,0.0417633056640625,-0.30419921875,-0.94964599609375,321259.2765506667,0.1485055855499796,-0.00521819783990126,0.1040092237408266,321259.2765506667,-2.193904425088081,0.03857388580026434,0.2955537795035477,0.1688420027494431,-0.0129750482738018,0.09445583075284958,0.01282092463225126,-0.005742666311562061,-0.02521077170968056,XTrueNorthZVertical,-0.08414826622298723,0.122288131698172,0.8786630316307729,-0.4537796516683422,0.03689220920205116,-0.2912696599960327,-0.9559293389320374,20.98421859741211,-16.08831024169922,-39.35847091674805,1,321256.9318126667,walking,0,2015-02-11 00:14:36.241,2015-02-11 00:12:28.580,55,35.85,0,0,2015-02-11 00:13:40.429,0,0.2064571,101.1209,192.168.1.3,10.42.194.158,5,0
2015-02-11 00:14:38.815,7,1423642478.064168,37.77937271635773,-122.4387669191905,63.29776,0.49,240.8203125,4,10,-9999,1423642478.748288,22.4027099609375,-18.85511779785156,-38.2099609375,266.6703186035156,252.8876037597656,25,321259.4087886667,0.0012359619140625,-0.299560546875,-0.953521728515625,321259.3765046667,0.2307863442729587,-0.07304864448811045,0.1731081340162406,321259.3765046667,-2.185145930298258,0.03553956134586529,0.3105634653449074,0.2511241436004639,-0.08080241829156876,0.1635546982288361,-0.003497807309031487,0.0006788131431676447,-0.02671121060848236,XTrueNorthZVertical,-0.08674859862443771,0.1292073669223213,0.8757285974130635,-0.4570334494629825,0.03383228182792664,-0.305595189332962,-0.9515602588653564,20.9320240020752,-16.70685195922852,-39.12789154052734,1,321256.9318126667,walking,0,2015-02-11 00:14:36.241,2015-02-11 00:12:28.580,55,35.85,0,0,2015-02-11 00:13:40.429,0,0.2064571,101.1209,192.168.1.3,10.42.194.158,5,0
2015-02-11 00:14:38.890,8,1423642478.064168,37.77937271635773,-122.4387669191905,63.29776,0.49,240.8203125,4,10,-9999,1423642478.86184,21.53289794921875,-20.76324462890625,-37.5062255859375,264.7900390625,251.00732421875,25,321259.5079786667,-0.0105438232421875,-0.3318023681640625,-0.92376708984375,321259.4764506667,0.1644278267592363,-0.108189854020033,0.0870118643995049,321259.4764506667,-2.172441416993636,0.01519464344562634,0.3379182684133822,0.1847578287124634,-0.1159537434577942,0.07745938748121262,-0.0234442837536335,0.002849492477253079,0.0193724911659956,XTrueNorthZVertical,-0.08495738798195161,0.1453040585513374,0.8716521399603092,-0.4603167746061343,0.014334786683321,-0.3315238058567047,-0.9433379173278809,19.9737720489502,-18.24594116210938,-38.94091033935547,1,321256.9318126667,walking,0,2015-02-11 00:14:36.241,2015-02-11 00:12:28.580,55,35.85,0,0,2015-02-11 00:13:40.429,0,0.2064571,101.1209,192.168.1.3,10.42.194.158,5,0
2015-02-11 00:14:39.001,9,1423642478.064168,37.77937271635773,-122.4387669191905,63.29776,0.49,240.8203125,4,10,-9999,1423642478.962464,21.46332550048828,-21.1795654296875,-37.5732421875,265.0857543945312,251.3030395507812,25,321259.6071816667,0.019805908203125,-0.338470458984375,-0.9572601318359375,321259.5763926667,-0.08629174564074747,0.1826076296245532,0.01286519859395478,321259.5763926667,-2.166214784786579,0.0212517215778865,0.3358929747432299,-0.06596122682094574,0.1748398989439011,0.003313551191240549,-0.01574435085058212,-0.01259648893028498,-0.004110144451260567,XTrueNorthZVertical,-0.08757826180090239,0.1427531699274371,0.8701070970710645,-0.4635355794839844,0.02006258815526962,-0.3296123743057251,-0.9439031481742859,19.89565467834473,-18.4466495513916,-38.88629913330078,1,321256.9318126667,walking,0,2015-02-11 00:14:36.241,2015-02-11 00:12:28.580,55,35.85,0,0,2015-02-11 00:13:40.429,0,0.2064571,101.1209,192.168.1.3,10.42.194.158,5,0
2015-02-11 00:14:39.093,10,1423642479.056031,37.77936479545923,-122.4387897179671,63.29776,0.81,238.7109375,4,10,-9999,1423642478.962464,21.46332550048828,-21.1795654296875,-37.5732421875,265.0857543945312,251.3030395507812,25,321259.7063536667,0.0127105712890625,-0.3287811279296875,-0.9524993896484375,321259.6763516667,0.04588440136930222,-1.944107595757844e-05,0.01158634863849873,321259.6763516667,-2.164777861031852,0.02611861648094759,0.3379943667326707,0.06621669977903366,-0.007792661432176828,0.002036058576777577,-0.007899174466729164,-0.0003135771257802844,-0.006881841458380222,XTrueNorthZVertical,-0.09028104369497678,0.1424759947289057,0.8693959863089794,-0.4644357397429479,0.02463806606829166,-0.3315955996513367,-0.9430998563766479,20.35938262939453,-18.36239624023438,-38.68563461303711,1,321256.9318126667,walking,0,2015-02-11 00:14:36.241,2015-02-11 00:12:28.580,55,35.85,0,0,2015-02-11 00:13:40.429,0,0.210989,101.1208,192.168.1.3,10.42.194.158,5,0
2015-02-11 00:14:39.187,11,1423642479.056031,37.77936479545923,-122.4387897179671,63.29776,0.81,238.7109375,4,10,-9999,1423642479.081242,21.67208099365234,-21.17955017089844,-37.03717041015625,263.9958801269531,250.2131652832031,25,321259.8055386667,0.0263214111328125,-0.339324951171875,-0.957366943359375,321259.7763006667,-0.06290066915436351,0.03932237244334698,0.001214934089294148,321259.7763006667,-2.164265928469694,0.02585051325626736,0.3402483670735227,-0.0426180362701416,0.03151476010680199,-0.008325698785483837,-0.00269835558719933,-0.005756307858973742,0.009114059619605541,XTrueNorthZVertical,-0.09072024553489193,0.143497066648985,0.8691145292902452,-0.4645625654044986,0.02436583675444126,-0.3337212204933167,-0.9423568844795227,20.29870796203613,-18.52928733825684,-38.63791275024414,1,321256.9318126667,walking,0,2015-02-11 00:14:36.241,2015-02-11 00:12:28.580,55,35.85,0,0,2015-02-11 00:13:40.429,0,0.210989,101.1208,192.168.1.3,10.42.194.158,5,0
2015-02-11 00:14:39.287,12,1423642479.056031,37.77936479545923,-122.4387897179671,63.29776,0.81,238.7109375,4,10,-9999,1423642479.200325,22.08959197998047,-21.45709228515625,-37.64031982421875,264.9128112792969,251.1300964355469,25,321259.9047306667,0.0235137939453125,-0.3345947265625,-0.9639129638671875,321259.8762566667,-0.03306394388166076,0.02760712680808841,-0.005257612624034432,321259.8762566667,-2.165248075019548,0.02714305108959571,0.3398013732843701,-0.01277846936136484,0.01979763619601727,-0.01479775458574295,-0.004256105981767178,-0.01061801705509424,-0.004761508200317621,XTrueNorthZVertical,-0.09110872831306671,0.1430468457053592,0.8693185894760556,-0.4642434736597537,0.02558789402246475,-0.3332998156547546,-0.9424735903739929,20.34567642211914,-18.47431945800781,-38.63953399658203,1,321256.9318126667,walking,0,2015-02-11 00:14:36.241,2015-02-11 00:12:28.580,55,35.85,0,0,2015-02-11 00:13:40.429,0,0.210989,101.1208,192.168.1.3,10.42.194.158,5,0
2015-02-11 00:14:39.410,13,1423642479.056031,37.77936479545923,-122.4387897179671,63.29776,0.81,238.7109375,4,10,-9999,1423642479.319855,21.77646636962891,-20.86729431152344,-36.60162353515625,264.7911987304688,251.0084838867188,25,321260.0039136667,0.0311431884765625,-0.3338165283203125,-0.9451904296875,321259.9762016667,-0.02882046300072851,0.0456183515764033,-0.01488067890692675,321259.9762016667,-2.1672112965756,0.03081699379168776,0.3383174763139838,-0.008535763248801231,0.03780695050954819,-0.02442001923918724,-0.004147911444306374,-0.002602759981527925,-0.005741858389228582,XTrueNorthZVertical,-0.09222524811552964,0.1416376838341975,0.8697211814741078,-0.4637007115681249,0.02906551398336887,-0.331900417804718,-0.9428665637969971,20.50909614562988,-18.40731811523438,-38.58507537841797,1,321256.9318126667,walking,0,2015-02-11 00:14:36.241,2015-02-11 00:12:28.580,55,35.85,0,0,2015-02-11 00:13:40.429,0,0.210989,101.1208,192.168.1.3,10.42.194.158,5,0
2015-02-11 00:14:39.491,14,1423642479.056031,37.77936479545923,-122.4387897179671,63.29776,0.81,238.7109375,4,10,-9999,1423642479.436715,22.61149597167969,-21.63053894042969,-36.6685791015625,264.7019653320312,250.9192352294922,25,321260.1031056667,0.0444488525390625,-0.33441162109375,-0.957305908203125,321260.0761506667,-0.06925044414143944,0.06800941107346252,0.01612650566486582,321260.0761506667,-2.168082905598,0.03448249902115068,0.3365575626862877,-0.04896630719304085,0.06019959598779678,0.006586925592273474,0.002767357276752591,-6.725809362251312e-05,-0.01566365920007229,XTrueNorthZVertical,-0.09335425904695512,0.1400606824669987,0.8698903841287382,-0.4636364097333376,0.03254147991538048,-0.3302397429943085,-0.9433359503746033,20.63230323791504,-18.3516960144043,-38.54586410522461,1,321256.9318126667,walking,0,2015-02-11 00:14:36.241,2015-02-11 00:12:28.580,55,35.85,0,0,2015-02-11 00:13:40.429,0,0.210989,101.1208,192.168.1.3,10.42.194.158,5,0
2015-02-11 00:14:39.588,15,1423642479.056031,37.77936479545923,-122.4387897179671,63.29776,0.81,238.7109375,4,10,-9999,1423642479.5558,22.36793518066406,-21.59584045410156,-37.037353515625,263.057373046875,249.274658203125,25,321260.202388875,0.056915283203125,-0.331024169921875,-0.9620513916015625,321260.176194875,-0.1470512332786873,0.1041876555338619,0.02804734733627851,321260.176194875,-2.167188502376002,0.04725560100594085,0.3313527474479951,-0.1267631500959396,0.09638305753469467,0.01850631088018417,0.00287797162309289,-0.01006569527089596,-0.01419271714985371,XTrueNorthZVertical,-0.09777719603746164,0.134780789155882,0.8694790920084957,-0.4650590077130446,0.04466841369867325,-0.3253224790096283,-0.9445475339889526,21.10475921630859,-18.17654228210449,-38.37268447875977,1,321256.9318126667,walking,0,2015-02-11 00:14:36.241,2015-02-11 00:12:28.580,55,35.85,0,0,2015-02-11 00:13:40.429,0,0.210989,101.1208,192.168.1.3,10.42.194.158,5,0
2015-02-11 00:14:39.684,16,1423642479.056031,37.77936479545923,-122.4387897179671,63.29776,0.81,238.7109375,4,10,-9999,1423642479.67605,22.61149597167969,-20.03465270996094,-36.46759033203125,264.8428039550781,251.0600738525391,25,321260.301573875,0.0435028076171875,-0.3094635009765625,-0.9669342041015625,321260.276142875,-0.07788760818878443,0.02868171230793538,-0.01897981645677671,321260.276142875,-2.165364951716029,0.05117230690022997,0.3241041152819726,-0.05759913474321365,0.02087586745619774,-0.02852013148367405,-0.01612303406000137,0.01636616699397564,-0.01140381954610348,XTrueNorthZVertical,-0.09793878734759649,0.13061478069726,0.8694262371384311,-0.4663108453134957,0.04848692566156387,-0.3184596598148346,-0.9466955661773682,21.31145286560059,-17.9153995513916,-38.38125610351562,1,321256.9318126667,walking,0,2015-02-11 00:14:36.241,2015-02-11 00:12:28.580,55,35.85,0,0,2015-02-11 00:13:40.429,0,0.210989,101.1208,192.168.1.3,10.42.194.158,5,0
2015-02-11 00:14:39.783,17,1423642479.056031,37.77936479545923,-122.4387897179671,63.29776,0.81,238.7109375,4,10,-9999,1423642479.67605,22.61149597167969,-20.03465270996094,-36.46759033203125,264.8428039550781,251.0600738525391,25,321260.400760875,0.0569610595703125,-0.329925537109375,-0.99884033203125,321260.376106875,-0.2284576762157934,-0.2779131102907829,-0.06937960745430828,321260.376106875,-2.170504376577175,0.04875061123383918,0.318950937902204,-0.2081781327724457,-0.2857286632061005,-0.07891648262739182,-0.03354770317673683,0.008532128296792507,-0.02325820550322533,XTrueNorthZVertical,-0.09537084184661263,0.1291744242881692,0.8711327859108956,-0.4640539335376861,0.04627353325486183,-0.3135705888271332,-0.9484367370605469,21.46995735168457,-17.7550048828125,-38.36744689941406,1,321256.9318126667,walking,0,2015-02-11 00:14:36.241,2015-02-11 00:12:28.580,55,35.85,0,0,2015-02-11 00:13:40.429,0,0.210989,101.1208,192.168.1.3,10.42.194.158,5,0
2015-02-11 00:14:39.902,18,1423642479.056031,37.77936479545923,-122.4387897179671,63.29776,0.81,238.7109375,4,10,-9999,1423642479.795812,23.09859466552734,-20.24281311035156,-36.80279541015625,264.6593017578125,250.8765869140625,25,321260.499926875,0.00213623046875,-0.2834320068359375,-0.9355316162109375,321260.476045875,-0.3374765722831681,0.1484240928206231,-0.2005749122348818,321260.476045875,-2.173423057021445,0.02703516582146759,0.3097558632171035,-0.3171989023685455,0.140605702996254,-0.2101106494665146,-0.05815504118800163,0.03897224739193916,0.08473515510559082,XTrueNorthZVertical,-0.08360643891930059,0.1303072233946302,0.8734565981628521,-0.461631427995953,0.02574537135660648,-0.3048261404037476,-0.9520599842071533,20.31911277770996,-17.36993408203125,-39.16222381591797,1,321256.9318126667,walking,0,2015-02-11 00:14:36.241,2015-02-11 00:12:28.580,55,35.85,0,0,2015-02-11 00:13:40.429,0,0.210989,101.1208,192.168.1.3,10.42.194.158,5,0
2015-02-11 00:14:39.984,19,1423642479.056031,37.77936479545923,-122.4387897179671,63.29776,0.81,238.7109375,4,10,-9999,1423642479.914271,22.75065612792969,-19.96525573730469,-38.34442138671875,265.1254272460938,251.3427124023438,25,321260.599103875,0.073150634765625,-0.2590789794921875,-1.002685546875,321260.575993875,-0.2914646054976511,-0.03182450871033789,-0.1259254416155247,321260.575993875,-2.200263310413602,0.05991554564401507,0.2700337441832095,-0.2711878418922424,-0.03964448720216751,-0.1354604661464691,0.03752032667398453,-0.04593440517783165,-0.106403149664402,XTrueNorthZVertical,-0.08746746358740271,0.1064574179929864,0.8809310420573964,-0.4527436066836421,0.05770977586507797,-0.2667639553546906,-0.9620324969291687,21.82966804504395,-15.21072864532471,-39.24741744995117,1,321256.9318126667,walking,0,2015-02-11 00:14:36.241,2015-02-11 00:12:28.580,55,35.85,0,0,2015-02-11 00:13:40.429,0,0.210989,101.1208,192.168.1.3,10.42.194.158,5,0
2015-02-11 00:14:40.082,20,1423642479.056031,37.77936479545923,-122.4387897179671,63.29776,0.81,238.7109375,4,10,-9999,1423642480.032998,23.86402130126953,-17.8836669921875,-38.143310546875,265.8271484375,252.04443359375,25,321260.698285875,0.1963653564453125,-0.3804779052734375,-0.9434051513671875,321260.675945875,-0.04271364177545388,-0.03164314744010349,-0.406978951463729,321260.575993875,-2.200263310413602,0.05991554564401507,0.2700337441832095,-0.2711878418922424,-0.03964448720216751,-0.1354604661464691,0.03752032667398453,-0.04593440517783165,-0.106403149664402,XTrueNorthZVertical,-0.08746746358740271,0.1064574179929864,0.8809310420573964,-0.4527436066836421,0.05770977586507797,-0.2667639553546906,-0.9620324969291687,21.82966804504395,-15.21072864532471,-39.24741744995117,1,321256.9318126667,walking,0,2015-02-11 00:14:36.241,2015-02-11 00:12:28.580,55,35.85,0,0,2015-02-11 00:13:40.429,0,0.210989,101.1208,192.168.1.3,10.42.194.158,5,0
2015-02-11 00:14:40.180,21,1423642480.071568,37.77936479545923,-122.4387897179671,63.2291,0,232.03125,4,10,-9999,1423642480.151466,23.6552734375,-17.12039184570312,-37.875244140625,267.1136474609375,253.3309326171875,25,321260.797495875,0.066802978515625,-0.2593994140625,-1.011703491210938,321260.775894875,0.1099051960781531,-0.08173028332565976,0.0338583648348314,321260.675945875,-2.219734421636613,0.05212120660029754,0.2618545947960806,-0.02244117483496666,-0.03946588933467865,-0.4165128469467163,-0.04931460320949554,0.028083186596632,0.04228232055902481,XTrueNorthZVertical,-0.08118647486513542,0.1053984969279939,0.8861594605086865,-0.4438708561965238,0.05032168328762054,-0.2588723599910736,-0.9645998477935791,21.66074371337891,-14.53215026855469,-39.59658050537109,1,321256.9318126667,walking,0,2015-02-11 00:14:36.241,2015-02-11 00:12:28.580,55,35.85,0,0,2015-02-11 00:13:40.429,0,0.210989,101.1208,192.168.1.3,10.42.194.158,5,0
2015-02-11 00:14:40.300,22,1423642480.071568,37.77936479545923,-122.4387897179671,63.2291,0,232.03125,4,10,-9999,1423642480.251595,22.85504913330078,-17.5714111328125,-37.97589111328125,266.7533264160156,252.9705963134766,25,321260.896669875,0.0386810302734375,-0.28533935546875,-0.928009033203125,321260.875844875,-0.008973254976912984,-0.1997812902300382,-0.1425909710850226,321260.875844875,-2.226443804229443,0.02970316849713243,0.2712453192570219,0.01122371666133404,-0.2076427340507507,-0.1521195918321609,-0.005968909710645676,0.0109123894944787,0.0009921309538185596,XTrueNorthZVertical,-0.0729253066347626,0.1147841330099955,0.8879035840878352,-0.4394698409569601,0.02861295267939568,-0.2679314315319061,-0.9630129933357239,20.81623268127441,-14.65354537963867,-40.00273132324219,1,321256.9318126667,walking,0,2015-02-11 00:14:36.241,2015-02-11 00:12:28.580,55,35.85,0,0,2015-02-11 00:13:40.429,0,0.210989,101.1208,192.168.1.3,10.42.194.158,5,0
2015-02-11 00:14:40.386,23,1423642480.071568,37.77936479545923,-122.4387897179671,63.2291,0,232.03125,4,10,-9999,1423642480.370466,23.02900695800781,-17.46733093261719,-38.21044921875,267.3111572265625,253.5284271240234,25,321260.995855875,0.0618438720703125,-0.3204193115234375,-0.946868896484375,321260.975793875,0.09915587897026623,0.1473396536247429,-0.01856383069450634,321260.975793875,-2.221852994999664,0.03460747031083139,0.2713465252026891,0.1193523705005646,0.13947793841362,-0.0280921459197998,0.01909464225172997,0.005409917794167995,0.01851331442594528,XTrueNorthZVertical,-0.07538530571813699,0.1135784280510823,0.886703832643655,-0.4417842491801512,0.03333455696702003,-0.2680289447307587,-0.9628340005874634,20.81503868103027,-14.6112117767334,-40.01883316040039,1,321256.9318126667,walking,0,2015-02-11 00:14:36.241,2015-02-11 00:12:28.580,55,35.85,0,0,2015-02-11 00:13:40.429,0,0.210989,101.1208,192.168.1.3,10.42.194.158,5,0
2015-02-11 00:14:40.486,24,1423642480.071568,37.77936479545923,-122.4387897179671,63.2291,0,232.03125,4,10,-9999,1423642480.370466,23.02900695800781,-17.46733093261719,-38.21044921875,267.3111572265625,253.5284271240234,25,321261.095041875,0.0263519287109375,-0.23931884765625,-0.97393798828125,321261.075762875,-0.04604578893136102,-0.199540274151386,-0.0518863675180138,321261.075762875,-2.224922835373537,0.0293686987094363,0.2594368146016883,-0.02585655823349953,-0.2074043899774551,-0.06141361221671104,0.003478568280115724,-0.01789306662976742,-0.01256566029042006,XTrueNorthZVertical,-0.07028529946498051,0.1095493997970857,0.8883196763307334,-0.4403942229551444,0.02838178351521492,-0.2565362453460693,-0.966117799282074,20.78580284118652,-14.32529544830322,-40.13722610473633,1,321256.9318126667,walking,0,2015-02-11 00:14:36.241,2015-02-11 00:12:28.580,55,35.85,0,0,2015-02-11 00:13:40.429,0,0.2316341,101.1206,192.168.1.3,10.42.194.158,5,0
2015-02-11 00:14:40.581,25,1423642480.071568,37.77936479545923,-122.4387897179671,63.2291,0,232.03125,4,10,-9999,1423642480.489699,22.75065612792969,-17.18975830078125,-38.2774658203125,267.0188598632812,253.2361450195312,25,321261.194226875,-0.00799560546875,-0.2747802734375,-0.9792633056640625,321261.175695875,0.02780020598711915,-0.1771169904051368,0.04379248833304498,321261.075762875,-2.224922835373537,0.0293686987094363,0.2594368146016883,-0.02585655823349953,-0.2074043899774551,-0.06141361221671104,0.003478568280115724,-0.01789306662976742,-0.01256566029042006,XTrueNorthZVertical,-0.07028529946498051,0.1095493997970857,0.8883196763307334,-0.4403942229551444,0.02838178351521492,-0.2565362453460693,-0.966117799282074,20.78580284118652,-14.32529544830322,-40.13722610473633,1,321256.9318126667,walking,0,2015-02-11 00:14:36.241,2015-02-11 00:12:28.580,55,35.85,0,0,2015-02-11 00:13:40.429,0,0.2316341,101.1206,192.168.1.3,10.42.194.158,5,0
2015-02-11 00:14:40.724,26,1423642480.071568,37.77936479545923,-122.4387897179671,63.2291,0,232.03125,4,10,-9999,1423642480.607049,21.70687103271484,-17.32853698730469,-38.34442138671875,267.37255859375,253.5898284912109,25,321261.293412875,-0.0382537841796875,-0.2930145263671875,-0.995941162109375,321261.275643875,0.1313862534307322,-0.2364998900756147,0.1042925840808111,321261.275643875,-2.225073543801861,-0.02210283579719545,0.276872017631175,0.151575580239296,-0.2443653643131256,0.09476609528064728,0.006183638237416744,0.007204337976872921,-0.03470345214009285,XTrueNorthZVertical,-0.05122710712275536,0.128591117097937,0.8888643242028196,-0.4367611870853362,-0.02125932276248932,-0.2733481228351593,-0.9616802334785461,18.87020111083984,-14.75742244720459,-40.91936492919922,1,321256.9318126667,walking,0,2015-02-11 00:14:36.241,2015-02-11 00:12:28.580,55,35.85,0,0,2015-02-11 00:13:40.429,0,0.2316341,101.1206,192.168.1.3,10.42.194.158,5,0
2015-02-11 00:14:40.793,27,1423642480.071568,37.77936479545923,-122.4387897179671,63.2291,0,232.03125,4,10,-9999,1423642480.728738,20.97621917724609,-17.77960205078125,-39.4503173828125,268.504638671875,254.721923828125,25,321261.392583875,-0.025726318359375,-0.261016845703125,-0.96728515625,321261.375594875,0.08139046397056565,0.02672455522283615,0.1244287450829002,321261.275643875,-2.225073543801861,-0.02210283579719545,0.276872017631175,0.151575580239296,-0.2443653643131256,0.09476609528064728,0.006183638237416744,0.007204337976872921,-0.03470345214009285,XTrueNorthZVertical,-0.05122710712275536,0.128591117097937,0.8888643242028196,-0.4367611870853362,-0.02125932276248932,-0.2733481228351593,-0.9616802334785461,18.87020111083984,-14.75742244720459,-40.91936492919922,1,321256.9318126667,walking,0,2015-02-11 00:14:36.241,2015-02-11 00:12:28.580,55,35.85,0,0,2015-02-11 00:13:40.429,0,0.2316341,101.1206,192.168.1.3,10.42.194.158,5,0
2015-02-11 00:14:40.875,28,1423642480.071568,37.77936479545923,-122.4387897179671,63.2291,0,232.03125,4,10,-9999,1423642480.728738,20.97621917724609,-17.77960205078125,-39.4503173828125,268.504638671875,254.721923828125,25,321261.491788875,-0.0325927734375,-0.28631591796875,-0.98687744140625,321261.475542875,0.2071337453675289,-0.03817747949072191,0.09960329003339954,321261.375594875,-2.211457660016752,-0.03403553986370005,0.2904148492723603,0.1015766486525536,0.01885588467121124,0.114903450012207,0.004756721667945385,0.02971215359866619,-0.03505973890423775,XTrueNorthZVertical,-0.04983553647286045,0.1368622905889789,0.8853612109812156,-0.4414982130138974,-0.03260401263833046,-0.2863497138023376,-0.9575702548027039,18.18441772460938,-15.62505340576172,-40.90776443481445,1,321256.9318126667,walking,0,2015-02-11 00:14:36.241,2015-02-11 00:12:28.580,55,35.85,0,0,2015-02-11 00:13:40.429,0,0.2316341,101.1206,192.168.1.3,10.42.194.158,5,0
2015-02-11 00:14:40.973,29,1423642480.071568,37.77936479545923,-122.4387897179671,63.2291,0,232.03125,4,10,-9999,1423642480.963795,19.65409851074219,-20.34689331054688,-38.981201171875,265.2093200683594,251.4266052246094,25,321261.590956875,-0.0989532470703125,-0.3162078857421875,-0.89599609375,321261.575500875,0.1768392227034416,-0.5901138869841179,-0.00846459120870785,321261.475542875,-2.19285965801743,-0.03783450391517627,0.2943836291886483,0.2273209244012833,-0.04604631662368774,0.0900782123208046,0.01018203515559435,-0.007472630590200424,-0.03526557981967926,XTrueNorthZVertical,-0.05033355193690135,0.1389905677909954,0.8810728285798409,-0.4492870347987561,-0.03619826957583427,-0.2901500463485718,-0.9562963247299194,17.9846305847168,-16.02063369750977,-40.84302520751953,1,321256.9318126667,walking,0,2015-02-11 00:14:36.241,2015-02-11 00:12:28.580,55,35.85,0,0,2015-02-11 00:13:40.429,0,0.2316341,101.1206,192.168.1.3,10.42.194.158,5,0
2015-02-11 00:14:41.103,30,1423642480.071568,37.77936479545923,-122.4387897179671,63.2291,0,232.03125,4,10,-9999,1423642481.088645,17.87964630126953,-19.34078979492188,-40.087158203125,268.54248046875,254.759765625,25,321261.690134875,-0.067901611328125,-0.3412933349609375,-0.92291259765625,321261.675453875,-0.1786744070106152,0.105767709008606,-0.2265876044983398,321261.575500875,-2.190900487403317,-0.07779915236786482,0.3205929808079794,0.1970242112874985,-0.5979841351509094,-0.0179890263825655,0.004287458024919033,0.03021727502346039,0.05375247448682785,XTrueNorthZVertical,-0.03885512765355757,0.1593777699750373,0.8799124096827491,-0.445918344615352,-0.07376072555780411,-0.3151293694972992,-0.9461780190467834,19.22617530822754,-19.52519607543945,-38.59277725219727,1,321256.9318126667,walking,0,2015-02-11 00:14:36.241,2015-02-11 00:12:28.580,55,35.85,0,0,2015-02-11 00:13:40.429,0,0.2316341,101.1206,192.168.1.3,10.42.194.158,5,0
2015-02-11 00:14:41.206,31,1423642481.072596,37.77936479545923,-122.4387897179671,63.27209,0,243.28125,4,5,-9999,1423642481.088645,17.87964630126953,-19.34078979492188,-40.087158203125,268.54248046875,254.759765625,25,321261.789302875,-0.06756591796875,-0.2995452880859375,-0.9775848388671875,321261.775395875,0.0392760334403796,-0.009732255887585568,-0.0640564810674579,321261.675453875,-2.207407844626196,-0.1066460578694385,0.3173454442894715,-0.1584875285625458,0.0978926420211792,-0.2361107021570206,0.01870098151266575,-0.02396813780069351,0.02572417631745338,XTrueNorthZVertical,-0.02405774007276633,0.1645797096460742,0.8842038173198656,-0.4364840971189792,-0.1011289581656456,-0.3120456635951996,-0.9446694850921631,17.59878730773926,-19.36479187011719,-39.44070053100586,1,321256.9318126667,walking,0,2015-02-11 00:14:36.241,2015-02-11 00:12:28.580,55,35.85,0,0,2015-02-11 00:13:40.429,0,0.2316341,101.1206,192.168.1.3,10.42.194.158,1,0
2015-02-11 00:14:41.273,32,1423642481.072596,37.77936479545923,-122.4387897179671,63.27209,0,243.28125,4,5,-9999,1423642481.201677,17.74046325683594,-18.78569030761719,-39.55096435546875,267.1891479492188,253.4064331054688,25,321261.888489875,-0.0680999755859375,-0.29193115234375,-0.9459381103515625,321261.875334875,0.01998116502664651,-0.06177415201326,-0.09592067087803798,321261.775395875,-2.222817246686428,-0.09263622677765554,0.2949858238407863,0.05947443097829819,-0.01759476587176323,-0.07358361035585403,0.004554349463433027,-0.007750886492431164,-0.01598516851663589,XTrueNorthZVertical,-0.02404091721534661,0.1518885635731998,0.8886586444652297,-0.4320158856543638,-0.08850820362567902,-0.2907262742519379,-0.9527037739753723,18.29295921325684,-18.05875015258789,-39.74330902099609,1,321256.9318126667,walking,0,2015-02-11 00:14:36.241,2015-02-11 00:12:28.580,55,35.85,0,0,2015-02-11 00:13:40.429,0,0.2316341,101.1206,192.168.1.3,10.42.194.158,1,0
2015-02-11 00:14:41.371,33,1423642481.072596,37.77936479545923,-122.4387897179671,63.27209,0,243.28125,4,5,-9999,1423642481.319285,18.33193969726562,-18.47344970703125,-39.7855224609375,269.3782958984375,255.5955810546875,25,321261.987656875,-0.1250457763671875,-0.28814697265625,-0.915252685546875,321261.975275875,0.07012475992731246,-0.1095382124799401,-0.08216757437665077,321261.875334875,-2.230480947458053,-0.08431619576160326,0.3098676008860223,0.04012187570333481,-0.06966245174407959,-0.1054465919733047,0.002950187539681792,-0.002913523698225617,0.007889564149081707,XTrueNorthZVertical,-0.03043809530719157,0.1567743701062838,0.8893329710075312,-0.4284649334498161,-0.08020543307065964,-0.3049325346946716,-0.9489906430244446,18.66794967651367,-18.43128776550293,-39.39640426635742,1,321256.9318126667,walking,0,2015-02-11 00:14:36.241,2015-02-11 00:12:28.580,55,35.85,0,0,2015-02-11 00:13:40.429,0,0.2316341,101.1206,192.168.1.3,10.42.194.158,1,0
2015-02-11 00:14:41.517,34,1423642481.072596,37.77936479545923,-122.4387897179671,63.27209,0,243.28125,4,5,-9999,1423642481.419535,18.08839416503906,-19.41015625,-40.891357421875,269.5731201171875,255.7903900146484,25,321262.086845875,-0.13714599609375,-0.254638671875,-0.8988800048828125,321262.075239875,0.09358321438927543,-0.03106417621912027,-0.08977729087544319,321261.975275875,-2.229096990875932,-0.103728373498262,0.3180241446701961,0.090265192091465,-0.1174256131052971,-0.09169355034828186,-0.01068897172808647,-0.03148685023188591,-0.01937692239880562,XTrueNorthZVertical,-0.02371821196992957,0.1645071851931637,0.8888113106890408,-0.4270706027314344,-0.09835033863782883,-0.312690407037735,-0.944749653339386,17.97687911987305,-18.77054595947266,-39.55729675292969,1,321261.999960875,unknown,2,2015-02-11 00:14:41.319,2015-02-11 00:12:28.580,55,35.85,0,0,2015-02-11 00:13:40.429,0,0.2316341,101.1206,192.168.1.3,10.42.194.158,1,0
2015-02-11 00:14:41.588,35,1423642481.072596,37.77936479545923,-122.4387897179671,63.27209,0,243.28125,4,5,-9999,1423642481.536855,18.71466827392578,-20.10403442382812,-39.34979248046875,268.1579284667969,254.3752136230469,25,321262.186006875,-0.213043212890625,-0.2247467041015625,-0.86273193359375,321262.175194875,0.7519504580027071,1.119966830086359,-0.8133922475119252,321262.075239875,-2.232981911380116,-0.0930454473631544,0.3249093157317094,0.1137136146426201,-0.03895804286003113,-0.09930071234703064,-0.02806928195059299,0.02835980989038944,0.001609565922990441,XTrueNorthZVertical,-0.02966291186116261,0.1653176218925776,0.889076343208528,-0.4258326722834231,-0.08805010467767715,-0.3192228376865387,-0.9435803890228271,18.37319946289062,-18.95490646362305,-39.28636169433594,1,321261.999960875,unknown,2,2015-02-11 00:14:41.319,2015-02-11 00:12:28.580,55,35.85,0,0,2015-02-11 00:13:40.429,0,0.2316341,101.1206,192.168.1.3,10.42.194.158,1,0
2015-02-11 00:14:41.670,36,1423642481.072596,37.77936479545923,-122.4387897179671,63.27209,0,243.28125,4,5,-9999,1423642481.655682,23.75965118408203,-19.23667907714844,-36.836181640625,274.76806640625,260.9853515625,25,321262.285209875,-0.020538330078125,-0.39459228515625,-1.201492309570312,321262.275144875,1.232036909814637,1.00443117883156,-1.493635495267595,321262.175194875,-2.26946275173187,-0.04092204354881892,0.3679724250404677,0.7720728516578674,1.112063646316528,-0.8229122757911682,-0.1601312160491943,0.1430495232343674,0.1305349320173264,XTrueNorthZVertical,-0.05902547972096642,0.1742907065676426,0.8925168467068301,-0.411767451333575,-0.03817201033234596,-0.3597243130207062,-0.932277500629425,19.57179641723633,-19.55296516418457,-38.40452575683594,1,321261.999960875,unknown,2,2015-02-11 00:14:41.319,2015-02-11 00:12:28.580,55,35.85,0,0,2015-02-11 00:13:40.429,0,0.2316341,101.1206,192.168.1.3,10.42.194.158,1,0
2015-02-11 00:14:42.097,37,1423642481.072596,37.77936479545923,-122.4387897179671,63.27209,0,243.28125,4,5,-9999,1423642481.781062,27.51728820800781,-19.30606079101562,-33.41790771484375,279.74609375,265.96337890625,25,321262.384394875,0.3011016845703125,-0.5150299072265625,-0.749847412109375,321262.375094875,1.351975565299664,0.6421275536022375,-1.663095098590427,321262.275144875,-2.417063949736686,0.09532735291577966,0.4294586857177611,1.252158999443054,0.9965280294418335,-1.50315535068512,-0.1850808560848236,0.08405753970146179,-0.2277186214923859,XTrueNorthZVertical,-0.1189593280911777,0.1825294523984676,0.9089858621735961,-0.3553538981369488,0.08653958886861801,-0.4163787066936493,-0.9050633311271667,24.2767162322998,-19.18885040283203,-35.81494903564453,1,321261.999960875,unknown,2,2015-02-11 00:14:41.319,2015-02-11 00:12:28.580,55,35.85,0,0,2015-02-11 00:13:40.429,0,0.2346554,101.1205,192.168.1.3,10.42.194.158,1,0
2015-02-11 00:14:42.850,38,1423642481.072596,37.77936479545923,-122.4387897179671,63.27209,0,243.28125,4,5,-9999,1423642481.895343,34.33671569824219,-16.94692993164062,-29.06109619140625,293.3102416992188,279.5275268554688,25,321262.483566875,0.347686767578125,-0.46923828125,-0.729461669921875,321262.475043875,-0.3778407733449541,-0.2115127811479462,-1.274427510149865,321262.375094875,-2.609408078287119,0.2192807219605893,0.5458103059081302,1.372097134590149,0.6342246532440186,-1.672614812850952,0.004186883103102446,0.002967036096379161,0.0238001998513937,XTrueNorthZVertical,-0.1721138862919846,0.2307740847850578,0.9157661142370563,-0.2801652534445352,0.1859223693609238,-0.5191108584403992,-0.8342402577400208,29.60361480712891,-19.52260589599609,-31.34924125671387,1,321261.999960875,unknown,2,2015-02-11 00:14:41.319,2015-02-11 00:12:28.580,55,35.85,0,0,2015-02-11 00:13:40.429,0,0.2346554,101.1205,192.168.1.3,10.42.194.158,1,0
2015-02-11 00:14:42.858,39,1423642481.072596,37.77936479545923,-122.4387897179671,63.27209,0,243.28125,4,5,-9999,1423642482.137659,29.22214508056641,-21.76930236816406,-29.4298095703125,304.5163879394531,290.7336730957031,25,321262.582749875,0.5754852294921875,-0.65081787109375,-0.7197113037109375,321262.475043875,-0.3778407733449541,-0.2115127811479462,-1.274427510149865,321262.475043875,-2.741663230207193,0.3620531362124196,0.5497855898827696,-0.3577195405960083,-0.2194155156612396,-1.283946990966797,0.09895557910203934,0.02334365993738174,0.03585636988282204,XTrueNorthZVertical,-0.2228640159598114,0.2272683037514734,0.9181549451472497,-0.2359496948233522,0.3019996285438538,-0.522504448890686,-0.7973614931106567,34.14082717895508,-17.33837127685547,-27.82204818725586,1,321261.999960875,unknown,2,2015-02-11 00:14:41.319,2015-02-11 00:12:28.580,55,35.85,0,0,2015-02-11 00:13:40.429,0,0.2346554,101.1205,192.168.1.3,10.42.194.158,1,0
2015-02-11 00:14:42.955,40,1423642481.072596,37.77936479545923,-122.4387897179671,63.27209,0,243.28125,4,5,-9999,1423642482.277442,27.90000915527344,-27.52839660644531,-25.34124755859375,304.956787109375,291.174072265625,25,321262.681937875,0.5152587890625,-0.845947265625,-0.5684051513671875,321262.674929875,1.748814530912916,-0.8130329870808736,-0.3060510051041241,321262.574989875,-2.829062981091117,0.2911500017381524,0.6082658243933396,1.491610288619995,-1.5569087266922,-0.2756313979625702,0.3110170066356659,-0.04916028305888176,0.05662617087364197,XTrueNorthZVertical,-0.1828305006286917,0.2711484048252695,0.9257519926835145,-0.1898283749297383,0.2355680763721466,-0.5714451670646667,-0.7861031293869019,32.31242370605469,-17.10606002807617,-30.05946159362793,1,321261.999960875,unknown,2,2015-02-11 00:14:41.319,2015-02-11 00:12:28.580,55,35.85,0,0,2015-02-11 00:13:40.429,0,0.2346554,101.1205,192.168.1.3,10.42.194.158,1,0
2015-02-11 00:14:43.136,41,1423642481.072596,37.77936479545923,-122.4387897179671,63.27209,0,243.28125,4,5,-9999,1423642482.277442,27.90000915527344,-27.52839660644531,-25.34124755859375,304.956787109375,291.174072265625,25,321262.781123875,-0.0291595458984375,-0.9268798828125,-0.5975189208984375,321262.674929875,1.748814530912916,-0.8130329870808736,-0.3060510051041241,321262.674929875,-2.910849859479388,0.2473774052339929,0.7575467834803333,1.768934845924377,-0.8209354281425476,-0.3155700862407684,0.2910197079181671,-0.2450334876775742,0.08993557840585709,XTrueNorthZVertical,-0.1561090438114272,0.3513210200746566,0.9106395132715557,-0.1514569161442247,0.1778981238603592,-0.6871411800384521,-0.7044070363044739,29.36226272583008,-21.50446701049805,-30.26048278808594,1,321261.999960875,unknown,2,2015-02-11 00:14:41.319,2015-02-11 00:12:28.580,55,35.85,0,0,2015-02-11 00:13:40.429,0,0.2346554,101.1205,192.168.1.3,10.42.194.158,1,0
2015-02-11 00:14:43.246,42,1423642482.362386,37.77935511436107,-122.4388173782476,63.3662,0.29,300.9375,4,5,-9999,1423642482.381489,27.13455963134766,-34.32830810546875,-8.71875,307.6180419921875,293.8353271484375,25,321262.880305875,0.07916259765625,-0.9210205078125,-0.0232696533203125,321262.874844875,2.826256271028999,0.02939543948007662,0.1641583148569203,321262.774877875,-3.002869992188019,0.3138220478819767,0.9966883949460552,2.508051156997681,-0.7107298970222473,0.8907302618026733,-0.3426669239997864,-0.0319049246609211,-0.04216906428337097,XTrueNorthZVertical,-0.1696510382125831,0.461451534215048,0.8603214089215478,-0.1346406084381846,0.1676486134529114,-0.839677095413208,-0.5165619850158691,29.46872520446777,-25.90714263916016,-26.47065925598145,1,321261.999960875,unknown,2,2015-02-11 00:14:41.319,2015-02-11 00:12:28.580,55,35.85,0,0,2015-02-11 00:13:40.429,0,0.2346554,101.1205,192.168.1.3,10.42.194.158,1,0
2015-02-11 00:14:43.332,43,1423642482.362386,37.77935511436107,-122.4388173782476,63.3662,0.29,300.9375,4,5,-9999,1423642482.618822,35.10214233398438,-27.91004943847656,3.7147216796875,318.5791015625,304.79638671875,25,321262.979470875,0.2881011962890625,-0.855194091796875,0.316162109375,321262.874844875,2.826256271028999,0.02939543948007662,0.1641583148569203,321262.874844875,-3.070805290783656,0.3195079434598198,1.21828256363301,2.846317052841187,0.02146306820213795,0.1546408385038376,-0.04045221582055092,0.1670081466436386,0.2414961755275726,XTrueNorthZVertical,-0.1503711915852814,0.559907306649616,0.8059685124051976,-0.1196122192685137,0.1084453836083412,-0.9385077953338623,-0.3277846276760101,26.44001388549805,-33.87765502929688,-19.83712768554688,1,321261.999960875,unknown,2,2015-02-11 00:14:41.319,2015-02-11 00:12:28.580,55,35.85,0,0,2015-02-11 00:13:40.429,0,0.2346554,101.1205,192.168.1.3,10.42.194.158,1,0
2015-02-11 00:14:43.419,44,1423642482.362386,37.77935511436107,-122.4388173782476,63.3662,0.29,300.9375,4,5,-9999,1423642482.618822,35.10214233398438,-27.91004943847656,3.7147216796875,318.5791015625,304.79638671875,25,321263.078671875,0.043975830078125,-0.4747467041015625,0.4179840087890625,321263.074742875,-1.419629178051492,-0.6353351612419904,-0.06225245574503822,321262.974795875,1.630770969331261,1.822572671465314,1.37921317573048,3.764322757720947,-2.69789457321167,-2.739052295684814,-0.06101210042834282,-0.1273505538702011,-0.1837892234325409,XTrueNorthZVertical,-0.1765920999547892,0.7018073588065794,0.6888554240402415,-0.04195091672681578,0.1844099313020706,-0.9817039966583252,0.0474366769194603,27.58797454833984,-36.26849746704102,-7.225455284118652,1,321261.999960875,unknown,2,2015-02-11 00:14:41.319,2015-02-11 00:12:28.580,55,35.85,0,0,2015-02-11 00:13:40.429,0,0.2346554,101.1205,192.168.1.3,10.42.194.158,1,0
2015-02-11 00:14:43.509,45,1423642482.362386,37.77935511436107,-122.4388173782476,63.3662,0.29,300.9375,4,5,-9999,1423642482.618822,35.10214233398438,-27.91004943847656,3.7147216796875,318.5791015625,304.79638671875,25,321263.177857875,0.457244873046875,-0.8912506103515625,0.2716217041015625,321263.074742875,-1.419629178051492,-0.6353351612419904,-0.06225245574503822,321263.074742875,1.377407069236465,2.247013201386093,1.125654657833854,-1.399569272994995,-0.6432672142982483,-0.07176956534385681,-0.3596373498439789,0.6796950697898865,0.3273057341575623,XTrueNorthZVertical,-0.3064439676132598,0.7354131353295366,0.6039170479716012,-0.0233201104817494,0.3358336389064789,-0.902549684047699,0.2694807648658752,34.65012741088867,-29.79643821716309,6.344143867492676,1,321261.999960875,unknown,2,2015-02-11 00:14:41.319,2015-02-11 00:12:28.580,55,35.85,0,0,2015-02-11 00:13:40.429,0,0.2346554,101.1205,192.168.1.3,10.42.194.158,1,0
2015-02-11 00:14:43.587,46,1423642482.362386,37.77935511436107,-122.4388173782476,63.3662,0.29,300.9375,4,5,-9999,1423642482.725506,35.55445098876953,-28.36106872558594,0.12872314453125,319.2765197753906,305.4938049316406,25,321263.277044875,0.375762939453125,-0.8634033203125,0.21331787109375,321263.174693875,-0.1911316093255698,0.6152346865985083,-0.1503231929939586,321263.174693875,1.549728828205552,2.060186749475518,1.151800452188472,-0.1710720360279083,0.6073027849197388,-0.1598401218652725,0.1215028464794159,-0.0759735107421875,0.1114211454987526,XTrueNorthZVertical,-0.3027732406702967,0.7098975010783664,0.6356438429755326,-0.01818848177784865,0.3590879738330841,-0.9134979248046875,0.191252201795578,35.21199798583984,-29.77205657958984,1.56433629989624,1,321261.999960875,unknown,2,2015-02-11 00:14:41.319,2015-02-11 00:12:28.580,55,35.85,0,0,2015-02-11 00:13:40.429,0,0.2346554,101.1205,192.168.1.3,10.42.194.158,1,0
2015-02-11 00:14:43.666,47,1423642482.362386,37.77935511436107,-122.4388173782476,63.3662,0.29,300.9375,4,5,-9999,1423642482.844463,35.76320648193359,-28.91615295410156,-0.54156494140625,320.3226928710938,306.5399780273438,25,321263.376231875,0.391876220703125,-0.8037109375,0.230224609375,321263.274642875,-0.2791147285746266,0.05883801691144763,0.09137145910396462,321263.274642875,1.617418343821459,2.005565363477556,1.169320513143902,-0.2590555548667908,0.05090627446770668,0.08185473084449768,0.02832923829555511,0.05325200408697128,0.03082355856895447,XTrueNorthZVertical,-0.3035189945229184,0.7001243434932941,0.6457416917458898,-0.02682917140773355,0.3544222116470337,-0.920485258102417,0.164595752954483,35.28154373168945,-29.69445037841797,1.469573974609375,1,321261.999960875,unknown,2,2015-02-11 00:14:41.319,2015-02-11 00:12:28.580,55,35.85,0,0,2015-02-11 00:13:40.429,0,0.2346554,101.1205,192.168.1.3,10.42.194.158,1,0
2015-02-11 00:14:43.765,48,1423642483.064583,37.77935490481349,-122.438823832313,63.3662,0.28,318.8671875,4,10,-9999,1423642483.06628,35.55445098876953,-29.19367980957031,-2.418212890625,327.9880676269531,314.2053527832031,25,321263.475404875,0.4927520751953125,-0.7888031005859375,0.3069305419921875,321263.474544875,-0.05304297837943521,-0.21718398268927,0.1197474405187589,321263.374598875,1.66278303783926,1.960542164885585,1.183116474838049,-0.1587035059928894,-0.06472323089838028,0.1349604874849319,0.04946412891149521,0.1208875402808189,0.08789873868227005,XTrueNorthZVertical,-0.3002190901488203,0.6940371475016099,0.6536293941136776,-0.03081500014634576,0.3496905267238617,-0.9257886409759521,0.1436381340026855,35.1236572265625,-29.90904235839844,0.696619987487793,1,321261.999960875,unknown,2,2015-02-11 00:14:41.319,2015-02-11 00:12:28.580,55,35.85,0,0,2015-02-11 00:13:40.429,0,0.2346554,101.1205,192.168.1.3,10.42.194.158,1,0
2015-02-11 00:14:43.843,49,1423642483.064583,37.77935490481349,-122.438823832313,63.3662,0.28,318.8671875,4,10,-9999,1423642483.06628,35.55445098876953,-29.19367980957031,-2.418212890625,327.9880676269531,314.2053527832031,25,321263.574591875,0.417083740234375,-0.8391571044921875,0.3367462158203125,321263.474544875,-0.05304297837943521,-0.21718398268927,0.1197474405187589,321263.474544875,1.633896759196798,1.971023266038396,1.181988572533541,-0.03289943933486938,-0.2250955551862717,0.1102071031928062,0.1231474503874779,0.1348495930433273,0.1636687815189362,XTrueNorthZVertical,-0.2939554794558605,0.6981699007591977,0.6523361625970477,-0.02462742425254409,0.349127322435379,-0.925361692905426,0.1477020680904388,35.02278900146484,-30.03223609924316,0.4202628135681152,1,321261.999960875,unknown,2,2015-02-11 00:14:41.319,2015-02-11 00:12:28.580,55,35.85,0,0,2015-02-11 00:13:40.429,0,0.2346554,101.1205,192.168.1.3,10.42.194.158,1,0
2015-02-11 00:14:43.940,50,1423642483.064583,37.77935490481349,-122.438823832313,63.3662,0.28,318.8671875,4,10,-9999,1423642483.180879,36.07634735107422,-28.81205749511719,-4.0604248046875,330.76611328125,316.9833984375,25,321263.673777875,0.3642120361328125,-1.031784057617188,0.0739898681640625,321263.574493875,0.1879861497620772,-0.2502774876590306,0.1361109675206418,321263.574493875,1.618322612272576,1.971257831346734,1.192662842137733,0.2081292867660522,-0.2581889033317566,0.1265708208084106,0.06023062020540237,0.08818408101797104,0.1814840286970139,XTrueNorthZVertical,-0.2850989652145901,0.7004862848729552,0.6538259012046846,-0.02343606062729314,0.3399769067764282,-0.9293553233146667,0.1439249068498611,34.70933532714844,-30.39665603637695,-0.1125121116638184,1,321261.999960875,unknown,2,2015-02-11 00:14:41.319,2015-02-11 00:12:28.580,55,35.85,0,0,2015-02-11 00:13:40.429,0,0.2346554,101.1205,192.168.1.3,10.42.194.158,1,0
2015-02-11 00:14:44.048,51,1423642483.064583,37.77935490481349,-122.438823832313,63.3662,0.28,318.8671875,4,10,-9999,1423642483.399364,34.64984130859375,-30.51203918457031,-0.07232666015625,326.4892883300781,312.7065734863281,25,321263.772956875,0.343536376953125,-0.94256591796875,0.0497589111328125,321263.674443875,-0.09441465328159816,-0.9009857462935035,-0.1267100088726621,321263.674443875,1.635221980611558,1.909800667365539,1.183507561069955,-0.07427193969488144,-0.9088969826698303,-0.1362499594688416,0.008027777075767517,-0.1058476194739342,-0.05160676687955856,XTrueNorthZVertical,-0.2738135999778503,0.6984442923391654,0.6611987745618008,-0.004228092876670241,0.3561842441558838,-0.9259364604949951,0.1255966275930405,34.82263946533203,-30.24308395385742,-1.202868938446045,1,321261.999960875,unknown,2,2015-02-11 00:14:41.319,2015-02-11 00:12:28.580,55,35.85,0,0,2015-02-11 00:13:40.429,0,0.2346554,101.1205,192.168.1.3,10.42.194.158,1,0
2015-02-11 00:14:44.167,52,1423642483.064583,37.77935490481349,-122.438823832313,63.3662,0.28,318.8671875,4,10,-9999,1423642483.637515,34.44108581542969,-28.98553466796875,3.81500244140625,325.6921081542969,311.9093933105469,25,321263.872154875,0.341217041015625,-0.9542694091796875,0.0953369140625,321263.774389875,0.424150481540342,0.01210193662553807,-0.09294325677932938,321263.774389875,1.640499600282882,1.858569723434578,1.172971087516874,0.4442927837371826,0.004190836101770401,-0.1024830117821693,-0.02794682048261166,-0.02066021040081978,-0.06019621714949608,XTrueNorthZVertical,-0.262133369270135,0.6973260798090047,0.6669161798361503,0.01566069894470469,0.3714832067489624,-0.9219056963920593,0.1099551320075989,34.99542999267578,-29.84030532836914,-3.685588836669922,1,321261.999960875,unknown,2,2015-02-11 00:14:41.319,2015-02-11 00:12:28.580,55,35.85,0,0,2015-02-11 00:13:40.429,0,0.2346554,101.1205,192.168.1.3,10.42.194.158,1,0
2015-02-11 00:14:44.274,53,1423642483.064583,37.77935490481349,-122.438823832313,63.3662,0.28,318.8671875,4,10,-9999,1423642483.754594,33.43207550048828,-28.81205749511719,3.91558837890625,324.82568359375,311.04296875,25,321263.971339875,0.236480712890625,-0.8324737548828125,0.159576416015625,321263.874349875,0.3067596722701941,0.231537089384252,0.2407865141662062,321263.874349875,1.558782413524253,1.952622524573842,1.167581007902497,0.3268381059169769,0.2235947102308273,0.2312484085559845,-0.02290401421487331,-0.03446527943015099,-0.05086927115917206,XTrueNorthZVertical,-0.2662293688274882,0.7086783578531037,0.6532725182235927,0.01148644869139528,0.3641210496425629,-0.9198041558265686,0.1462061852216721,35.09781265258789,-29.86432647705078,-2.230045795440674,1,321261.999960875,unknown,2,2015-02-11 00:14:41.319,2015-02-11 00:12:28.580,55,35.85,0,0,2015-02-11 00:13:40.429,0,0.2346554,101.1205,192.168.1.3,10.42.194.158,1,0
2015-02-11 00:14:44.350,54,1423642483.064583,37.77935490481349,-122.438823832313,63.3662,0.28,318.8671875,4,10,-9999,1423642483.873695,30.927001953125,-32.28140258789062,1.4356689453125,321.414306640625,307.631591796875,25,321264.070539875,0.288909912109375,-0.717010498046875,0.3362884521484375,321263.974293875,0.6487564278715537,0.2233409448134242,0.5211428084410278,321263.974293875,1.406753653882428,2.116621942983296,1.187368102713669,0.6688345074653625,0.2153987139463425,0.5116048455238342,-0.08326388150453568,0.09491382539272308,-0.03462887927889824,XTrueNorthZVertical,-0.2580398203203543,0.7283667336433576,0.63471926108251,-0.005368924194479925,0.3197445869445801,-0.9273875951766968,0.1942052990198135,33.97756195068359,-31.2120475769043,-0.2020010948181152,1,321261.999960875,unknown,2,2015-02-11 00:14:41.319,2015-02-11 00:12:28.580,55,35.85,0,0,2015-02-11 00:13:40.429,0,0.2346554,101.1205,192.168.1.3,10.42.194.158,1,0
2015-02-11 00:14:44.425,55,1423642484.059921,37.77935515627058,-122.4388281070836,63.24522,0.27,326.25,4,10,-9999,1423642483.99272,31.72723388671875,-32.66302490234375,-1.54705810546875,319.3059387207031,305.5232238769531,25,321264.169729875,0.4108734130859375,-0.8752288818359375,0.501953125,321264.074226875,0.1942738730957543,0.09225962332750604,0.06433930877522431,321264.074226875,1.258131728973916,2.271384357910438,1.170387252360501,0.2143515199422836,0.08431755751371384,0.05480159446597099,-0.009074137546122074,0.2038911134004593,0.08500026166439056,XTrueNorthZVertical,-0.2565290825145262,0.7482225094375552,0.6117542708686725,-0.01061280144689366,0.2979840636253357,-0.9209015965461731,0.2512881755828857,33.08219528198242,-32.08192443847656,2.241867542266846,1,321261.999960875,unknown,2,2015-02-11 00:14:41.319,2015-02-11 00:12:28.580,55,35.85,0,0,2015-02-11 00:13:40.429,0,0.2346554,101.1205,192.168.1.3,10.42.194.158,1,0
2015-02-11 00:14:44.498,56,1423642484.059921,37.77935515627058,-122.4388281070836,63.24522,0.27,326.25,4,10,-9999,1423642484.111173,33.18854522705078,-30.16510009765625,-4.1610107421875,321.98046875,308.19775390625,25,321264.268925875,0.415374755859375,-0.8364715576171875,0.6658935546875,321264.174194875,0.1368332168082713,0.4204026149382734,-0.3024557376325171,321264.174194875,1.242645526232478,2.31096166506885,1.148444503711639,0.1569104641675949,0.4124607145786285,-0.3119932413101196,0.1082158386707306,0.03689855337142944,0.2255078852176666,XTrueNorthZVertical,-0.2689973985063406,0.7522386709614547,0.6013196706446003,-0.01385815601815909,0.3026575744152069,-0.9121274352073669,0.2764452397823334,33.12002944946289,-31.91485977172852,3.634945869445801,1,321261.999960875,unknown,2,2015-02-11 00:14:41.319,2015-02-11 00:12:28.580,55,35.85,0,0,2015-02-11 00:13:40.429,0,0.2346554,101.1205,192.168.1.3,10.42.194.158,1,0
2015-02-11 00:14:44.514,57,1423642484.059921,37.77935515627058,-122.4388281070836,63.24522,0.27,326.25,4,10,-9999,1423642484.211268,34.47588348388672,-28.74264526367188,-2.65301513671875,322.86279296875,309.080078125,25,321264.368097875,0.209075927734375,-1.121963500976562,0.055084228515625,321264.274132875,-0.05689896932176094,0.455880448031982,-0.1814741882646155,321264.274132875,1.2867382322364,2.309705472237674,1.13790239988408,-0.03682210296392441,0.4479386806488037,-0.1910115331411362,0.1052791327238083,0.07128399610519409,0.3833681643009186,XTrueNorthZVertical,-0.2881352053200044,0.7471551370613525,0.5984939522266117,-0.02328748701748888,0.3100956380367279,-0.9077555537223816,0.2825253903865814,33.66722106933594,-31.19077682495117,4.72874641418457,1,321261.999960875,unknown,2,2015-02-11 00:14:41.319,2015-02-11 00:12:28.580,55,35.85,0,0,2015-02-11 00:13:40.429,0,0.2346554,101.1205,192.168.1.3,10.42.194.158,1,0
2015-02-11 00:14:44.659,58,1423642484.059921,37.77935515627058,-122.4388281070836,63.24522,0.27,326.25,4,10,-9999,1423642484.449632,34.30191802978516,-28.91612243652344,-7.24432373046875,327.7967529296875,314.0140380859375,25,321264.467298875,0.164154052734375,-1.014404296875,0.053253173828125,321264.374093875,-0.1601420016169718,-0.4959463750516791,1.140326696620015,321264.374093875,1.236025027200281,2.337852370176045,1.193215646094925,-0.140065535902977,-0.503887951374054,1.130789637565613,-0.05635254085063934,-0.1924042105674744,-0.200781524181366,XTrueNorthZVertical,-0.262023423094832,0.7478479812322051,0.6089166083039105,-0.03588453892183606,0.2654284536838531,-0.9295592904090881,0.255865752696991,32.63535308837891,-32.3361701965332,4.244218349456787,1,321261.999960875,unknown,2,2015-02-11 00:14:41.319,2015-02-11 00:12:28.580,55,35.85,0,0,2015-02-11 00:13:40.429,0,0.2346554,101.1205,192.168.1.3,10.42.194.158,1,0
2015-02-11 00:14:44.736,59,1423642484.059921,37.77935515627058,-122.4388281070836,63.24522,0.27,326.25,4,10,-9999,1423642484.571197,29.08297729492188,-32.52424621582031,-8.718994140625,319.6806030273438,305.8978881835938,25,321264.566484875,0.15692138671875,-0.8433837890625,0.0594482421875,321264.474045875,-0.8742414836786007,-0.222830416832456,0.07745111608612043,321264.474045875,1.217790837660712,2.336041785352473,1.257209203244039,-0.8541654348373413,-0.2307718545198441,0.06791415810585022,-0.05832038074731827,-0.0631711333990097,-0.1604303121566772,XTrueNorthZVertical,-0.2365455627439564,0.742218254504835,0.6250789180036781,-0.04934185828158619,0.2224744260311127,-0.9512331485748291,0.2136834859848022,30.49054336547852,-34.54900741577148,2.323901176452637,1,321261.999960875,unknown,2,2015-02-11 00:14:41.319,2015-02-11 00:12:28.580,55,35.85,0,0,2015-02-11 00:13:40.429,0,0.2346554,101.1205,192.168.1.3,10.42.194.158,1,0
2015-02-11 00:14:44.739,60,1423642484.059921,37.77935515627058,-122.4388281070836,63.24522,0.27,326.25,4,10,-9999,1423642484.571197,29.08297729492188,-32.52424621582031,-8.718994140625,319.6806030273438,305.8978881835938,25,321264.665677875,0.29931640625,-0.8446502685546875,-0.0483856201171875,321264.573974875,-0.3377689873708588,-0.3864510394652892,-0.2575910606446062,321264.573974875,1.434840184439599,2.122789803770218,1.295150795455602,-0.3176933228969574,-0.3943923115730286,-0.2671278417110443,-0.07482463866472244,0.1188659146428108,-0.08327286690473557,XTrueNorthZVertical,-0.236104566290876,0.7180634998353487,0.6525412697547185,-0.05319162089179093,0.2317460179328918,-0.9622496962547302,0.1427211165428162,30.52709770202637,-34.5948486328125,0.009192466735839844,1,321261.999960875,unknown,2,2015-02-11 00:14:41.319,2015-02-11 00:12:28.580,55,35.85,0,0,2015-02-11 00:13:40.429,0,0.2346554,101.1205,192.168.1.3,10.42.194.158,1,0
2015-02-11 00:14:44.813,61,1423642484.059921,37.77935515627058,-122.4388281070836,63.24522,0.27,326.25,4,10,-9999,1423642484.68709,18.15800476074219,-38.69969177246094,-9.3892822265625,302.0693359375,288.28662109375,25,321264.764860875,0.4003143310546875,-1.022354125976562,0.1106414794921875,321264.673943875,-0.2900933438523693,0.1903153504514605,-0.4235129207753769,321264.673943875,1.689080503188315,1.874446515134304,1.280157546543753,-0.270018070936203,0.1823742389678955,-0.4330494999885559,0.02586199156939983,0.1134107485413551,-0.1340698897838593,XTrueNorthZVertical,-0.2484670427612011,0.6936182431236722,0.6746648414924697,-0.04455587959926596,0.2734544277191162,-0.9580610394477844,0.08568427711725235,31.97921752929688,-33.14583969116211,-2.718569278717041,1,321261.999960875,unknown,2,2015-02-11 00:14:41.319,2015-02-11 00:12:28.580,55,35.85,0,0,2015-02-11 00:13:40.429,0,0.2346554,101.1205,192.168.1.3,10.42.194.158,1,0
