loggingTime,loggingSample,locationTimestamp_since1970,locationLatitude,locationLongitude,locationAltitude,locationSpeed,locationCourse,locationVerticalAccuracy,locationHorizontalAccuracy,locationFloor,locationHeadingTimestamp_since1970,locationHeadingX,locationHeadingY,locationHeadingZ,locationTrueHeading,locationMagneticHeading,locationHeadingAccuracy,accelerometerTimestamp_sinceReboot,accelerometerAccelerationX,accelerometerAccelerationY,accelerometerAccelerationZ,gyroTimestamp_sinceReboot,gyroRotationX,gyroRotationY,gyroRotationZ,motionTimestamp_sinceReboot,motionYaw,motionRoll,motionPitch,motionRotationRateX,motionRotationRateY,motionRotationRateZ,motionUserAccelerationX,motionUserAccelerationY,motionUserAccelerationZ,motionAttitudeReferenceFrame,motionQuaternionX,motionQuaternionY,motionQuaternionZ,motionQuaternionW,motionGravityX,motionGravityY,motionGravityZ,motionMagneticFieldX,motionMagneticFieldY,motionMagneticFieldZ,motionMagneticFieldCalibrationAccuracy,activityTimestamp_sinceReboot,activity,activityActivityConfidence,activityActivityStartDate,pedometerStartDate,pedometerNumberofSteps,pedometerDistance,pedometerFloorAscended,pedometerFloorDescended,pedometerEndDate,altimeterTimestamp_sinceReboot,altimeterReset,altimeterRelativeAltitude,altimeterPressure,IP_en0,IP_pdp_ip0,deviceOrientation,state
2015-02-16 17:18:38.815,1,1424135914.649742,37.77917309860806,-122.4389002583513,58.1928,-1,-1,10,65,-9999,1424135918.721231,-18.60865783691406,-31.77017211914062,24.2779541015625,161.6041107177734,147.8231506347656,25,526818.45571575,-0.3896484375,-0.9072113037109375,-0.1467437744140625,526818.41420475,0.006256298032814147,-0.09771457618831535,-0.0425530531617221,526818.41420475,2.732467001464352,-1.169567088430472,1.157205011683771,0.02484655380249023,-0.1066113412380219,-0.05242536216974258,2.336423904125695e-06,0.006366363260895014,0.006846368312835693,XTrueNorthZVertical,0.5451576036012065,0.3525932780140729,0.6222289146332721,0.4373927020115861,-0.3699821829795837,-0.915683388710022,-0.1569623351097107,-7.70183277130127,-22.08409881591797,26.84852027893066,1,526752.5687201667,walking,0,2015-02-16 17:17:32.857,null,0,0,0,0,null,0,-0.05306625,100.668,192.168.1.3,10.191.100.224,1,0
2015-02-16 17:18:38.914,2,1424135914.649742,37.77917309860806,-122.4389002583513,58.1928,-1,-1,10,65,-9999,1424135918.84012,-18.60865783691406,-31.28451538085938,24.47909545898438,161.3374481201172,147.5564880371094,25,526818.55500275,-0.3372802734375,-0.8784332275390625,-0.149139404296875,526818.51614175,0.06928213575841138,0.08158727157512251,-0.01840830208684571,526818.51614175,2.746142103263678,-1.191886928801838,1.159504621303076,0.08790741860866547,0.07266005128622055,-0.02820826694369316,-0.005349491722881794,0.01125544030219316,0.01795808039605618,XTrueNorthZVertical,0.549487392912187,0.352307067813235,0.6184925687913876,0.43750463745297,-0.3714357912540436,-0.9166051745414734,-0.1478866636753082,-7.391676902770996,-21.93819046020508,27.05453109741211,1,526752.5687201667,walking,0,2015-02-16 17:17:32.857,null,0,0,0,0,null,0,-0.05306625,100.668,192.168.1.3,10.191.100.224,1,0
2015-02-16 17:18:39.012,3,1424135914.649742,37.77917309860806,-122.4389002583513,58.1928,-1,-1,10,65,-9999,1424135918.957774,-18.19097518920898,-31.42326354980469,24.34500122070312,162.4353485107422,148.6543884277344,25,526818.6542647501,-0.3718719482421875,-0.937042236328125,-0.1367950439453125,526818.6160727501,0.1249408709605224,-0.005281048441627129,0.06571083673661512,526818.6160727501,2.773643294592222,-1.207910354076255,1.161655520729038,0.1435542553663254,-0.01419514045119286,0.05587072670459747,0.02218221314251423,0.002805374097079039,0.006755650043487549,XTrueNorthZVertical,0.549382772361461,0.3571701552052122,0.6194961817467899,0.4322413225362467,-0.3719136714935303,-0.917462944984436,-0.1412160992622375,-7.650974273681641,-21.7294921875,27.15069961547852,1,526818.6284587501,unknown,2,2015-02-16 17:18:38.926,null,0,0,0,0,null,0,-0.05306625,100.668,192.168.1.3,10.191.100.224,1,0
2015-02-16 17:18:39.113,4,1424135914.649742,37.77917309860806,-122.4389002583513,58.1928,-1,-1,10,65,-9999,1424135919.057791,-18.74789047241211,-30.59071350097656,24.34500122070312,160.3591918945312,146.5782318115234,25,526818.75354375,-0.3759002685546875,-0.8925628662109375,-0.1146240234375,526818.71600775,0.1012248888211488,0.01044411884696375,-0.02909077385137155,526818.71600775,2.80856862415914,-1.233684008416221,1.165505674792205,0.1198627501726151,0.001508433604612947,-0.03893287479877472,-0.00745405163615942,0.005917157512158155,-0.004838572349399328,XTrueNorthZVertical,0.5507102302198108,0.3626438685940093,0.6188940351238086,0.4268229968431873,-0.3720930814743042,-0.9189878106117249,-0.1304153352975845,-7.87600040435791,-21.27859497070312,27.44191551208496,1,526818.6284587501,unknown,2,2015-02-16 17:18:38.926,null,0,0,0,0,null,0,-0.05306625,100.668,192.168.1.3,10.191.100.224,1,0
2015-02-16 17:18:39.213,5,1424135914.649742,37.77917309860806,-122.4389002583513,58.1928,-1,-1,10,65,-9999,1424135919.17652,-18.43462371826172,-31.24980163574219,24.98187255859375,161.0508880615234,147.2699279785156,25,526818.8528197501,-0.3479461669921875,-0.9267730712890625,-0.125213623046875,526818.81593675,0.121060911568386,0.07054154463790985,-0.1890817742345358,526818.81593675,2.825751276543834,-1.253001779004707,1.18172272195942,0.1397022306919098,0.06160054355859756,-0.1989028602838516,-0.02549656294286251,0.03149255737662315,0.01818878762423992,XTrueNorthZVertical,0.5518223109472229,0.3690892095122326,0.613005836226737,0.4283563560379096,-0.3603371679782867,-0.9252608418464661,-0.1185305863618851,-7.567817211151123,-21.03480911254883,27.71522521972656,1,526818.6284587501,unknown,2,2015-02-16 17:18:38.926,null,0,0,0,0,null,0,-0.05306625,100.668,192.168.1.3,10.191.100.224,1,0
2015-02-16 17:18:39.310,6,1424135914.649742,37.77917309860806,-122.4389002583513,58.1928,-1,-1,10,65,-9999,1424135919.295379,-16.48543548583984,-30.90290832519531,26.5235595703125,164.1323852539062,150.3514251708984,25,526818.9520737501,-0.2605133056640625,-0.9638519287109375,-0.1167449951171875,526818.91585775,0.1593241448462084,-0.4385885430740975,-0.5755740926967213,526818.91585775,2.840359894979287,-1.27871400876429,1.230704208979309,0.1779480576515198,-0.4475220143795013,-0.5853970050811768,0.01884779706597328,-0.01113348081707954,-0.009493415243923664,XTrueNorthZVertical,0.5512209985301878,0.3848760795025178,0.5961814001745034,0.4388548538363664,-0.319445937871933,-0.9427239298820496,-0.09605162590742111,-6.940375328063965,-20.80644989013672,28.04980659484863,1,526818.6284587501,unknown,2,2015-02-16 17:18:38.926,null,0,0,0,0,null,0,-0.05306625,100.668,192.168.1.3,10.191.100.224,1,0
2015-02-16 17:18:39.410,7,1424135914.649742,37.77917309860806,-122.4389002583513,58.1928,-1,-1,10,65,-9999,1424135919.295379,-16.48543548583984,-30.90290832519531,26.5235595703125,164.1323852539062,150.3514251708984,25,526819.05136575,-0.3418426513671875,-0.9534454345703125,-0.0681304931640625,526819.01578775,0.01861443075521784,-0.5593399953238163,-0.5473200840598527,526819.01578775,2.806784757206659,-1.30040990145401,1.282493602183331,0.03723714500665665,-0.5682714581489563,-0.5571512579917908,0.0054101194255054,0.01069927029311657,0.03054953925311565,XTrueNorthZVertical,0.557651661114858,0.3886546112876247,0.5685891219218099,0.4633342841367399,-0.2739953100681305,-0.9587278366088867,-0.0759444385766983,-3.894083499908447,-20.87111854553223,28.58498191833496,1,526818.6284587501,unknown,2,2015-02-16 17:18:38.926,null,0,0,0,0,null,0,-0.05306625,100.668,192.168.1.3,10.191.100.224,1,0
2015-02-16 17:18:39.509,8,1424135914.649742,37.77917309860806,-122.4389002583513,58.1928,-1,-1,10,65,-9999,1424135919.41416,-13.73570251464844,-31.90887451171875,27.42855834960938,169.2835693359375,155.5026092529297,25,526819.1506227501,-0.25091552734375,-0.958404541015625,-0.052520751953125,526819.11571775,-0.1093752270212273,0.1269041533161288,-0.2332114187615849,526819.11571775,2.752533817162004,-1.264602285677487,1.314515874039063,-0.09075050801038742,0.1179618909955025,-0.2429806143045425,-0.04144786670804024,0.02925967983901501,0.014503363519907,XTrueNorthZVertical,0.5543216019959394,0.3930946785966638,0.5567745217614484,0.4777094279795693,-0.2416942268610001,-0.9673395156860352,-0.0764082670211792,-2.508583307266235,-21.03716278076172,28.61841011047363,1,526818.6284587501,unknown,2,2015-02-16 17:18:38.926,null,0,0,0,0,null,0,-0.05306625,100.668,192.168.1.3,10.191.100.224,1,0
2015-02-16 17:18:39.615,9,1424135914.649742,37.77917309860806,-122.4389002583513,58.1928,-1,-1,10,65,-9999,1424135919.533921,-10.81192779541016,-32.32514953613281,27.361572265625,174.3924407958984,160.6114807128906,25,526819.2498967501,-0.14825439453125,-0.9801483154296875,-0.094146728515625,526819.21563775,0.1014949333556828,0.2578280819816233,0.04633261138076256,526819.21563775,2.758724277158733,-1.25365886262232,1.322972436219935,0.120144285261631,0.24887415766716,0.03657669574022293,0.03036490082740784,-0.01730686612427235,0.01004275213927031,XTrueNorthZVertical,0.5490626783062998,0.400353326730815,0.558835973105466,0.475341745140867,-0.2330626547336578,-0.9694485068321228,-0.07649477571249008,-2.619881868362427,-21.07931900024414,28.57739067077637,1,526818.6284587501,unknown,2,2015-02-16 17:18:38.926,null,0,0,0,0,null,0,-0.05306625,100.668,192.168.1.3,10.191.100.224,1,0
2015-02-16 17:18:39.707,10,1424135914.649742,37.77917309860806,-122.4389002583513,58.1928,-1,-1,10,65,-9999,1424135919.651257,-11.54286956787109,-32.35983276367188,27.7972412109375,173.2466888427734,159.4657287597656,25,526819.34918575,-0.20166015625,-0.95928955078125,-0.0756072998046875,526819.31558575,-0.01562663032825795,-0.2245691947081687,0.1548143478562683,526819.31558575,2.793328949379926,-1.285626060437928,1.32065361628629,0.003012348897755146,-0.2335053980350494,0.1449542790651321,0.06963732838630676,-0.01626083441078663,-0.01326217874884605,XTrueNorthZVertical,0.5513397304041814,0.4015035376996922,0.5588964983785295,0.47165044835801,-0.2375450432300568,-0.9688770771026611,-0.06963881850242615,-2.911801815032959,-20.80805206298828,28.7474365234375,1,526818.6284587501,unknown,2,2015-02-16 17:18:38.926,null,0,0,0,0,null,0,-0.05306625,100.668,192.168.1.3,10.191.100.224,1,0
2015-02-16 17:18:39.806,11,1424135914.649742,37.77917309860806,-122.4389002583513,58.1928,-1,-1,10,65,-9999,1424135919.770092,-11.85613632202148,-32.04762268066406,27.76376342773438,172.7103118896484,158.9293518066406,25,526819.44844375,-0.27191162109375,-0.9654083251953125,-0.0367279052734375,526819.41550675,0.02263127662738436,-0.275631580184912,0.1121185492601179,526819.41550675,2.802286812347573,-1.325528411081057,1.3101939661002,0.0412701815366745,-0.2845643162727356,0.1022331863641739,-0.007387997582554817,0.004946495406329632,0.01526244729757309,XTrueNorthZVertical,0.5620064873931768,0.3909812802034056,0.5528425548767715,0.4750236695359821,-0.2499514818191528,-0.9662349224090576,-0.06256469339132309,-2.230348348617554,-20.79794502258301,28.81561660766602,1,526818.6284587501,unknown,2,2015-02-16 17:18:38.926,null,0,0,0,0,null,0,-0.05306625,100.668,192.168.1.3,10.191.100.224,1,0
2015-02-16 17:18:39.907,12,1424135914.649742,37.77917309860806,-122.4389002583513,58.1928,-1,-1,10,65,-9999,1424135919.888891,-11.50806427001953,-31.56198120117188,29.23861694335938,173.4920501708984,159.7110900878906,25,526819.5477337501,-0.2674713134765625,-0.951568603515625,-0.0401763916015625,526819.51543775,0.1590791340259212,-0.03606506011407106,0.07416584056539868,526819.51543775,2.863787047079504,-1.40343357337152,1.301650874892544,0.1777397990226746,-0.04500814899802208,0.06431066989898682,-0.02366568706929684,0.01163641829043627,0.0008080562693066895,XTrueNorthZVertical,0.5726910798339176,0.3871396705789659,0.547614244813681,0.4714514522869031,-0.2621924579143524,-0.9639984965324402,-0.04429560527205467,-1.910536050796509,-20.43807220458984,29.09473991394043,1,526818.6284587501,unknown,2,2015-02-16 17:18:38.926,null,0,0,0,0,null,0,0,100.6673,192.168.1.3,10.191.100.224,1,0
2015-02-16 17:18:40.022,13,1424135914.649742,37.77917309860806,-122.4389002583513,58.1928,-1,-1,10,65,-9999,1424135920.008598,-10.95115661621094,-31.00694274902344,28.63525390625,173.7262115478516,159.9452514648438,25,526819.64700875,-0.308563232421875,-0.960357666015625,-0.02880859375,526819.61536675,0.1076620154919793,0.03805018039061613,-0.01741387773581012,526819.61536675,2.91676292741608,-1.455384526127029,1.297158469995923,0.1263043284416199,0.02910664677619934,-0.02720756083726883,-0.03028323873877525,0.008601075038313866,-0.008431568741798401,XTrueNorthZVertical,0.5773377452890696,0.388743516420392,0.546258569021375,0.4660055927990334,-0.2684380710124969,-0.9627941846847534,-0.0311192125082016,-1.985461235046387,-19.98739242553711,29.40120315551758,1,526818.6284587501,unknown,2,2015-02-16 17:18:38.926,null,0,0,0,0,null,0,0,100.6673,192.168.1.3,10.191.100.224,1,0
2015-02-16 17:18:40.105,14,1424135914.649742,37.77917309860806,-122.4389002583513,58.1928,-1,-1,10,65,-9999,1424135920.008598,-10.95115661621094,-31.00694274902344,28.63525390625,173.7262115478516,159.9452514648438,25,526819.74627675,-0.303802490234375,-0.9609222412109375,-0.017486572265625,526819.7152967501,0.06506688438503397,0.1877110452214721,-0.009975668811218811,526819.7152967501,2.953361867423268,-1.474059545652811,1.296461156417214,0.08369791507720947,0.1787513196468353,-0.01968952268362045,-0.009702100418508053,-0.007426220923662186,-0.005755556747317314,XTrueNorthZVertical,0.5754037619090225,0.3947500422230785,0.549519386645966,0.4594685942365155,-0.2696405649185181,-0.9626055359840393,-0.02616582997143269,-2.424567461013794,-19.7072925567627,29.55694198608398,1,526818.6284587501,unknown,2,2015-02-16 17:18:38.926,null,0,0,0,0,null,0,0,100.6673,192.168.1.3,10.191.100.224,1,0
2015-02-16 17:18:40.204,15,1424135914.649742,37.77917309860806,-122.4389002583513,58.1928,-1,-1,10,65,-9999,1424135920.127813,-12.03017425537109,-31.18038940429688,29.07089233398438,172.1660308837891,158.3850708007812,25,526819.84556475,-0.2276611328125,-0.9576568603515625,-0.0355072021484375,526819.81522675,0.01835637044558917,0.5496559426519612,0.03243357365163901,526819.81522675,2.980991972633733,-1.463014612088646,1.290417359772855,0.03700461238622665,0.5406830310821533,0.02278214879333973,0.01206792052835226,0.001600053743459284,0.0007911967695690691,XTrueNorthZVertical,0.5678858672532795,0.403263962141644,0.5604329859892407,0.4481056987705135,-0.2751141786575317,-0.9609506130218506,-0.02976763807237148,-3.526617050170898,-19.45507621765137,29.61303329467773,1,526818.6284587501,unknown,2,2015-02-16 17:18:38.926,null,0,0,0,0,null,0,0,100.6673,192.168.1.3,10.191.100.224,1,0
2015-02-16 17:18:40.303,16,1424135914.649742,37.77917309860806,-122.4389002583513,58.1928,-1,-1,10,65,-9999,1424135920.245311,-13.07437515258789,-31.18038940429688,28.6016845703125,169.9901275634766,156.2091674804688,25,526819.9448387501,-0.22943115234375,-0.9686279296875,-0.04815673828125,526819.91515375,-0.04240817719842179,0.2060354577339803,0.07026377693621459,526819.91515375,2.979431279242356,-1.425868743437131,1.290010861521025,-0.02376912906765938,0.1970711052417755,0.06055467948317528,0.05327341333031654,-0.008751159533858299,-0.007205433212220669,XTrueNorthZVertical,0.5577703123831232,0.4109525753197155,0.5706398252152908,0.4408860167707777,-0.2742054164409637,-0.9608380794525146,-0.04002051800489426,-4.649974346160889,-19.42960929870605,29.47434043884277,1,526818.6284587501,unknown,2,2015-02-16 17:18:38.926,null,0,0,0,0,null,0,0,100.6673,192.168.1.3,10.191.100.224,1,0
2015-02-16 17:18:40.408,17,1424135914.649742,37.77917309860806,-122.4389002583513,58.1928,-1,-1,10,65,-9999,1424135920.34686,-13.87493515014648,-31.14569091796875,28.09896850585938,168.4226226806641,154.6416625976562,25,526820.0441087501,-0.25958251953125,-0.9604034423828125,-0.0428924560546875,526820.01509475,-0.04676324452902837,0.01184254473536436,0.05555034454574481,526820.01509475,2.967248173018604,-1.408724473280246,1.289227681031667,-0.02813535742461681,0.00288586039096117,0.04579472914338112,0.01946085505187511,-0.0007287353510037065,0.0007389721577055752,XTrueNorthZVertical,0.5555053419384574,0.4110904751900151,0.5729216165765773,0.4406577901147086,-0.2742215991020203,-0.9606207609176636,-0.0448368713259697,-4.99363899230957,-19.53169441223145,29.35038757324219,1,526818.6284587501,unknown,2,2015-02-16 17:18:38.926,null,0,0,0,0,null,0,0,100.6673,192.168.1.3,10.191.100.224,1,0
2015-02-16 17:18:40.515,18,1424135914.649742,37.77917309860806,-122.4389002583513,58.1928,-1,-1,10,65,-9999,1424135920.463598,-14.43184661865234,-30.52128601074219,28.30014038085938,167.4349975585938,153.6540374755859,25,526820.14338675,-0.282501220703125,-0.9613189697265625,-0.0403594970703125,526820.1150167501,-0.02554690538880311,0.05098009379905984,0.01174933409721158,526820.01509475,2.967248173018604,-1.408724473280246,1.289227681031667,-0.02813535742461681,0.00288586039096117,0.04579472914338112,0.01946085505187511,-0.0007287353510037065,0.0007389721577055752,XTrueNorthZVertical,0.5555053419384574,0.4110904751900151,0.5729216165765773,0.4406577901147086,-0.2742215991020203,-0.9606207609176636,-0.0448368713259697,-4.99363899230957,-19.53169441223145,29.35038757324219,1,526818.6284587501,unknown,2,2015-02-16 17:18:38.926,null,0,0,0,0,null,0,0,100.6673,192.168.1.3,10.191.100.224,1,0
2015-02-16 17:18:40.601,19,1424135914.649742,37.77917309860806,-122.4389002583513,58.1928,-1,-1,10,65,-9999,1424135920.583028,-14.46665191650391,-31.31915283203125,28.3336181640625,167.6630096435547,153.8820495605469,25,526820.24267175,-0.272705078125,-0.9629364013671875,-0.03814697265625,526820.21493875,-0.03072062843850005,0.1317343285852056,0.06177681517435007,526820.21493875,2.977328017819417,-1.405479564954089,1.289044182503022,-0.01206918340176344,0.1227733641862869,0.05198849365115166,0.007418081630021334,-0.003160109976306558,0.006586154922842979,XTrueNorthZVertical,0.5525234910484558,0.4145359558190744,0.5760781773431533,0.4370488499074177,-0.2742485404014587,-0.9605697393417358,-0.04575546458363533,-5.289449691772461,-19.47389793395996,29.33696937561035,1,526818.6284587501,unknown,2,2015-02-16 17:18:38.926,null,0,0,0,0,null,0,0,100.6673,192.168.1.3,10.191.100.224,1,0
2015-02-16 17:18:40.702,20,1424135914.649742,37.77917309860806,-122.4389002583513,58.1928,-1,-1,10,65,-9999,1424135920.583028,-14.46665191650391,-31.31915283203125,28.3336181640625,167.6630096435547,153.8820495605469,25,526820.3419327501,-0.2407379150390625,-0.961883544921875,-0.047027587890625,526820.3148687501,-0.005001682843277817,0.194399041666988,0.1021375541267189,526820.21493875,2.977328017819417,-1.405479564954089,1.289044182503022,-0.01206918340176344,0.1227733641862869,0.05198849365115166,0.007418081630021334,-0.003160109976306558,0.006586154922842979,XTrueNorthZVertical,0.5525234910484558,0.4145359558190744,0.5760781773431533,0.4370488499074177,-0.2742485404014587,-0.9605697393417358,-0.04575546458363533,-5.289449691772461,-19.47389793395996,29.33696937561035,1,526818.6284587501,unknown,2,2015-02-16 17:18:38.926,null,0,0,0,0,null,0,0,100.6673,192.168.1.3,10.191.100.224,1,0
2015-02-16 17:18:40.799,21,1424135914.649742,37.77917309860806,-122.4389002583513,58.1928,-1,-1,10,65,-9999,1424135920.702821,-14.77991485595703,-31.07633972167969,27.62973022460938,166.7725372314453,152.9915771484375,25,526820.4411997501,-0.27911376953125,-0.951416015625,-0.054901123046875,526820.41481775,-0.06705147202936101,0.1338302363630979,0.03417261784346075,526820.41481775,2.971325075124378,-1.373412612957907,1.280594840124416,-0.04839479923248291,0.1248725205659866,0.02430051378905773,-0.01901701651513577,0.007365317549556494,0.004646509420126677,XTrueNorthZVertical,0.545855445096545,0.4171146493455293,0.5857009810262165,0.4301297404601871,-0.2805893123149872,-0.9581862688064575,-0.05611440539360046,-6.219964027404785,-19.47762489318848,29.1513786315918,1,526818.6284587501,unknown,2,2015-02-16 17:18:38.926,null,0,0,0,0,null,0,0,100.6673,192.168.1.3,10.191.100.224,1,0
2015-02-16 17:18:40.899,22,1424135914.649742,37.77917309860806,-122.4389002583513,58.1928,-1,-1,10,65,-9999,1424135920.819536,-15.58046722412109,-30.69476318359375,27.79730224609375,165.3055572509766,151.5245971679688,25,526820.54044875,-0.2495880126953125,-0.937896728515625,-0.06671142578125,526820.5147397501,-0.04258314688203999,0.1157255346405212,0.0149328768642923,526820.5147397501,2.962219396590666,-1.349259700167411,1.279123018709103,-0.02392333559691906,0.1067677140235901,0.005049817264080048,0.01703901402652264,-0.003890614956617355,0.009671665728092194,XTrueNorthZVertical,0.5408916837019382,0.4193376528487152,0.5906835643931067,0.4274167481567361,-0.2805277705192566,-0.9577640295028687,-0.06318423897027969,-6.702766418457031,-19.57607078552246,28.9779052734375,1,526818.6284587501,unknown,2,2015-02-16 17:18:38.926,null,0,0,0,0,null,0,0,100.6673,192.168.1.3,10.191.100.224,1,0
2015-02-16 17:18:40.997,23,1424135914.649742,37.77917309860806,-122.4389002583513,58.1928,-1,-1,10,65,-9999,1424135920.939278,-15.68489837646484,-30.59068298339844,26.42303466796875,164.6124877929688,150.8315277099609,25,526820.63971775,-0.282318115234375,-0.9471282958984375,-0.0579681396484375,526820.6146687501,-0.06192968062092062,-0.002127333078755296,-0.02965483137025033,526820.6146687501,2.947742759081343,-1.329478251653477,1.284353353258731,-0.04328092932701111,-0.01108028367161751,-0.03958862647414207,-0.001203435007482767,0.004314154852181673,0.004000321496278048,XTrueNorthZVertical,0.5372744319546057,0.4213963152581013,0.5915751781552382,0.4287192196402684,-0.27435502409935,-0.9592549800872803,-0.06752265989780426,-6.864242553710938,-19.6823902130127,28.86787796020508,1,526818.6284587501,unknown,2,2015-02-16 17:18:38.926,null,0,0,0,0,null,0,0,100.6673,192.168.1.3,10.191.100.224,1,0
2015-02-16 17:18:41.096,24,1424135914.649742,37.77917309860806,-122.4389002583513,58.1928,-1,-1,10,65,-9999,1424135921.057841,-15.99815368652344,-30.2091064453125,27.059814453125,163.9880218505859,150.2070617675781,25,526820.73897475,-0.2558441162109375,-0.9361419677734375,-0.067962646484375,526820.71460475,-0.02347043868686833,0.07214769709133664,-0.01066010121136917,526820.6146687501,2.947742759081343,-1.329478251653477,1.284353353258731,-0.04328092932701111,-0.01108028367161751,-0.03958862647414207,-0.001203435007482767,0.004314154852181673,0.004000321496278048,XTrueNorthZVertical,0.5372744319546057,0.4213963152581013,0.5915751781552382,0.4287192196402684,-0.27435502409935,-0.9592549800872803,-0.06752265989780426,-6.864242553710938,-19.6823902130127,28.86787796020508,1,526818.6284587501,unknown,2,2015-02-16 17:18:38.926,null,0,0,0,0,null,0,0,100.6673,192.168.1.3,10.191.100.224,1,0
2015-02-16 17:18:41.198,25,1424135914.649742,37.77917309860806,-122.4389002583513,58.1928,-1,-1,10,65,-9999,1424135921.174557,-15.71969985961914,-30.6253662109375,26.3223876953125,164.0132751464844,150.2323150634766,25,526820.83825075,-0.2714385986328125,-0.9560089111328125,-0.070709228515625,526820.8145057501,-0.004271710388487098,0.009546100927389028,-0.003194195411441038,526820.8145057501,2.946076832221804,-1.31875038183858,1.289519241810674,0.01441339496523142,0.0005753806908614933,-0.0131149273365736,-0.000612011703196913,0.002663394901901484,0.004039674997329712,XTrueNorthZVertical,0.5336608397020944,0.4249629361804644,0.5927505819486945,0.4280880623007716,-0.2688124179840088,-0.9607017040252686,-0.06922522187232971,-6.996794700622559,-19.73026275634766,28.80330276489258,1,526818.6284587501,unknown,2,2015-02-16 17:18:38.926,null,0,0,0,0,null,0,0.09703445,100.6662,192.168.1.3,10.191.100.224,1,0
2015-02-16 17:18:41.297,26,1424135914.649742,37.77917309860806,-122.4389002583513,58.1928,-1,-1,10,65,-9999,1424135921.293149,-16.24179840087891,-31.35386657714844,26.89227294921875,164.6595306396484,150.8785705566406,25,526820.9375187501,-0.279876708984375,-0.9519805908203125,-0.0684814453125,526820.91445875,0.006347111825985848,-0.01595979178062686,-0.01705594888530347,526820.91445875,2.952211438632894,-1.324011616990442,1.291728334362917,0.02502554282546043,-0.02492929250001907,-0.02696602046489716,0.001290916348807514,0.01596956886351109,-0.003143195994198322,XTrueNorthZVertical,0.5335750208443132,0.4262065343551396,0.5920854579657239,0.4278791045530297,-0.2671142816543579,-0.9613125920295715,-0.06729137152433395,-6.993466377258301,-19.6868782043457,28.83378410339355,1,526818.6284587501,unknown,2,2015-02-16 17:18:38.926,null,0,0,0,0,null,0,0.09703445,100.6662,192.168.1.3,10.191.100.224,1,0
2015-02-16 17:18:41.397,27,1424135914.649742,37.77917309860806,-122.4389002583513,58.1928,-1,-1,10,65,-9999,1424135921.293149,-16.24179840087891,-31.35386657714844,26.89227294921875,164.6595306396484,150.8785705566406,25,526821.03679175,-0.2562408447265625,-0.95294189453125,-0.0708160400390625,526821.0143857501,0.02348322186010071,0.1071355085444707,-0.001243696229067004,526821.0143857501,2.964743251018396,-1.33462926431,1.291089840539819,0.04216362908482552,0.09816400706768036,-0.01111933682113886,-0.002402601530775428,0.01329105254262686,-0.00515281455591321,XTrueNorthZVertical,0.5341446879874985,0.4270736438242783,0.5920923231185632,0.4262912928891058,-0.2684103846549988,-0.961136519908905,-0.06459511071443558,-7.003005504608154,-19.58428192138672,28.9012565612793,1,526818.6284587501,unknown,2,2015-02-16 17:18:38.926,null,0,0,0,0,null,0,0.09703445,100.6662,192.168.1.3,10.191.100.224,1,0
2015-02-16 17:18:41.496,28,1424135914.649742,37.77917309860806,-122.4389002583513,58.1928,-1,-1,10,65,-9999,1424135921.411287,-15.78931045532227,-30.41725158691406,26.92581176757812,164.670166015625,150.8892059326172,25,526821.13605875,-0.281585693359375,-0.9577178955078125,-0.0676727294921875,526821.1143167501,6.657902725198096e-05,-0.02646516333266243,0.02667155831714357,526821.0143857501,2.964743251018396,-1.33462926431,1.291089840539819,0.04216362908482552,0.09816400706768036,-0.01111933682113886,-0.002402601530775428,0.01329105254262686,-0.00515281455591321,XTrueNorthZVertical,0.5341446879874985,0.4270736438242783,0.5920923231185632,0.4262912928891058,-0.2684103846549988,-0.961136519908905,-0.06459511071443558,-7.003005504608154,-19.58428192138672,28.9012565612793,1,526818.6284587501,unknown,2,2015-02-16 17:18:38.926,null,0,0,0,0,null,0,0.09703445,100.6662,192.168.1.3,10.191.100.224,1,0
2015-02-16 17:18:41.595,29,1424135914.649742,37.77917309860806,-122.4389002583513,58.1928,-1,-1,10,65,-9999,1424135921.530409,-15.09317398071289,-30.76412963867188,27.59619140625,164.7134857177734,150.9325256347656,25,526821.2353087501,-0.2753143310546875,-0.950714111328125,-0.0651397705078125,526821.2142437501,-0.01381115341315093,-0.006309028622397715,0.01923228412811623,526821.2142437501,2.974899383011985,-1.347057429063792,1.287788868550816,0.004850206896662712,-0.015276157297194,0.009372248314321041,-0.006920754909515381,0.004592523910105228,-0.003486977191641927,XTrueNorthZVertical,0.5361822301458192,0.4260629432007043,0.5917733669675618,0.4251861910957327,-0.2722845673561096,-0.9602199792861938,-0.06195797026157379,-7.046050548553467,-19.49517250061035,28.95099639892578,1,526818.6284587501,unknown,2,2015-02-16 17:18:38.926,null,0,0,0,0,null,0,0.09703445,100.6662,192.168.1.3,10.191.100.224,1,0
2015-02-16 17:18:41.695,30,1424135914.649742,37.77917309860806,-122.4389002583513,58.1928,-1,-1,10,65,-9999,1424135921.649228,-15.99815368652344,-30.13973999023438,27.39511108398438,164.6931610107422,150.9122009277344,25,526821.33461275,-0.27508544921875,-0.955474853515625,-0.06463623046875,526821.31417475,-0.02235856893176024,-0.02646915807429755,0.01501490222586675,526821.2142437501,2.974899383011985,-1.347057429063792,1.287788868550816,0.004850206896662712,-0.015276157297194,0.009372248314321041,-0.006920754909515381,0.004592523910105228,-0.003486977191641927,XTrueNorthZVertical,0.5361822301458192,0.4260629432007043,0.5917733669675618,0.4251861910957327,-0.2722845673561096,-0.9602199792861938,-0.06195797026157379,-7.046050548553467,-19.49517250061035,28.95099639892578,1,526818.6284587501,unknown,2,2015-02-16 17:18:38.926,null,0,0,0,0,null,0,0.09703445,100.6662,192.168.1.3,10.191.100.224,1,0
2015-02-16 17:18:41.794,31,1424135914.649742,37.77917309860806,-122.4389002583513,58.1928,-1,-1,10,65,-9999,1424135921.767619,-15.47605895996094,-31.21511840820312,26.75823974609375,164.6811065673828,150.900146484375,25,526821.43387075,-0.2730255126953125,-0.9567108154296875,-0.06695556640625,526821.4141097501,-0.01810310382592263,0.01594993808459357,0.007498928997445119,526821.31417475,2.975309947626826,-1.347441193591477,1.287250046786121,-0.003706493880599737,-0.03543376550078392,0.005159188061952591,0.006546950899064541,0.006272975821048021,-0.009397291578352451,XTrueNorthZVertical,0.5362948653400137,0.425915232097053,0.5918948591849849,0.4250229859568175,-0.2728128135204315,-0.9600693583488464,-0.06196806579828262,-7.066747665405273,-19.47587585449219,28.95893669128418,1,526818.6284587501,unknown,2,2015-02-16 17:18:38.926,null,0,0,0,0,null,0,0.09703445,100.6662,192.168.1.3,10.191.100.224,1,0
2015-02-16 17:18:41.894,32,1424135914.649742,37.77917309860806,-122.4389002583513,58.1928,-1,-1,10,65,-9999,1424135921.886561,-16.13738250732422,-31.11105346679688,27.19403076171875,164.6591491699219,150.8781890869141,25,526821.53313475,-0.276153564453125,-0.9506683349609375,-0.0638275146484375,526821.51404175,-0.02873976921969911,-0.006294114920293271,0.01927702523442956,526821.4141097501,2.975011037078978,-1.349876951838958,1.285965377626265,0.0005447647417895496,0.006985473912209272,-0.002340588020160794,0.0001487861591158435,0.004875184502452612,0.001194561365991831,XTrueNorthZVertical,0.5372854325459425,0.4248971277283034,0.5915041665690467,0.4253347460497754,-0.2741661071777344,-0.9597091674804688,-0.06157359108328819,-7.000705242156982,-19.4848804473877,28.96891784667969,1,526818.6284587501,unknown,2,2015-02-16 17:18:38.926,null,0,0,0,0,null,0,0.09703445,100.6662,192.168.1.3,10.191.100.224,1,0
2015-02-16 17:18:41.993,33,1424135914.649742,37.77917309860806,-122.4389002583513,58.1928,-1,-1,10,65,-9999,1424135921.886561,-16.13738250732422,-31.11105346679688,27.19403076171875,164.6591491699219,150.8781890869141,25,526821.6323837501,-0.2756500244140625,-0.9517669677734375,-0.0680999755859375,526821.61397275,-0.0191305513744752,0.007496532152464048,0.02243180586173742,526821.51404175,2.972063169329636,-1.348434094866625,1.285155741221376,-0.01010095793753862,-0.01525616552680731,0.009442969225347042,-0.001852834713645279,0.002602688269689679,-0.003487605601549149,XTrueNorthZVertical,0.5376142167190278,0.4241470628710798,0.5914705280503588,0.4257145380778804,-0.2748347818851471,-0.9594813585281372,-0.06214044615626335,-6.975105285644531,-19.50357055664062,28.96251678466797,1,526818.6284587501,unknown,2,2015-02-16 17:18:38.926,null,0,0,0,0,null,0,0.09703445,100.6662,192.168.1.3,10.191.100.224,1,0
2015-02-16 17:18:42.095,34,1424135914.649742,37.77917309860806,-122.4389002583513,58.1928,-1,-1,10,65,-9999,1424135922.006872,-15.85894012451172,-30.69477844238281,27.12698364257812,164.6581115722656,150.8771514892578,25,526821.73166375,-0.279998779296875,-0.9559173583984375,-0.064544677734375,526821.71390075,-0.02229385411727132,0.009650496842120136,0.03522882753178618,526821.61397275,2.968001288163426,-1.345816122713833,1.283476071781581,-0.0004976582713425159,-0.001464280416257679,0.01260621473193169,0.0009732167818583548,0.01203100476413965,-0.0006693669711239636,XTrueNorthZVertical,0.5379676984479667,0.4230616551050491,0.5917372635169509,0.4259772679562314,-0.2762417793273926,-0.9590067267417908,-0.06321918219327927,-6.959311962127686,-19.54158782958984,28.94068145751953,1,526818.6284587501,unknown,2,2015-02-16 17:18:38.926,null,0,0,0,0,null,0,0.09703445,100.6662,192.168.1.3,10.191.100.224,1,0
2015-02-16 17:18:42.190,35,1424135914.649742,37.77917309860806,-122.4389002583513,58.1928,-1,-1,10,65,-9999,1424135922.123994,-15.99816513061523,-30.13973999023438,27.05990600585938,164.6271667480469,150.8462066650391,25,526821.83091975,-0.2863922119140625,-0.950653076171875,-0.0630340576171875,526821.8138307501,-0.02020087581657804,0.003251187058768734,0.02137346564453993,526821.8138307501,2.9642785966096,-1.343086561674294,1.2788495171689,-0.001564987236633897,-0.005731596145778894,0.01155558321624994,-0.007026977837085724,0.002683534286916256,0.002885879948735237,XTrueNorthZVertical,0.5386755052641234,0.4211196429526167,0.5928583515963297,0.4254479424488914,-0.2803875803947449,-0.9576853513717651,-0.06497389078140259,-7.024865627288818,-19.57541084289551,28.90195846557617,1,526818.6284587501,unknown,2,2015-02-16 17:18:38.926,null,0,0,0,0,null,0,0.09703445,100.6662,192.168.1.3,10.191.100.224,1,0
2015-02-16 17:18:42.290,36,1424135914.649742,37.77917309860806,-122.4389002583513,58.1928,-1,-1,10,65,-9999,1424135922.242953,-15.99816513061523,-30.62539672851562,26.99285888671875,164.5841827392578,150.80322265625,25,526821.93018575,-0.2672119140625,-0.95123291015625,-0.0696563720703125,526821.91376375,-0.02548405478707724,0.04466680411891799,0.03520326118532142,526821.8138307501,2.9642785966096,-1.343086561674294,1.2788495171689,-0.001564987236633897,-0.005731596145778894,0.01155558321624994,-0.007026977837085724,0.002683534286916256,0.002885879948735237,XTrueNorthZVertical,0.5386755052641234,0.4211196429526167,0.5928583515963297,0.4254479424488914,-0.2803875803947449,-0.9576853513717651,-0.06497389078140259,-7.024865627288818,-19.57541084289551,28.90195846557617,1,526818.6284587501,unknown,2,2015-02-16 17:18:38.926,null,0,0,0,0,null,0,0.09703445,100.6662,192.168.1.3,10.191.100.224,1,0
2015-02-16 17:18:42.390,37,1424135914.649742,37.77917309860806,-122.4389002583513,58.1928,-1,-1,10,65,-9999,1424135922.361209,-15.92855072021484,-30.48663330078125,26.92581176757812,164.5667266845703,150.7857666015625,25,526822.0294607501,-0.2823028564453125,-0.95208740234375,-0.062225341796875,526822.01367475,-0.02655943923525124,0.008593754521576694,0.03524267596945459,526821.91376375,2.963188166264741,-1.337917596018747,1.277012921976206,-0.006853654980659485,0.03568602353334427,0.02538272365927696,0.01353991404175758,0.005510249175131321,-0.004445670638233423,XTrueNorthZVertical,0.5376583621447826,0.4213186669014131,0.5944857353819449,0.4242650202493772,-0.2817589044570923,-0.957155168056488,-0.06682813167572021,-7.15498685836792,-19.57497024536133,28.87032318115234,1,526818.6284587501,unknown,2,2015-02-16 17:18:38.926,null,0,0,0,0,null,0,0.09703445,100.6662,192.168.1.3,10.191.100.224,1,0
2015-02-16 17:18:42.496,38,1424135914.649742,37.77917309860806,-122.4389002583513,58.1928,-1,-1,10,65,-9999,1424135922.471866,-16.58987808227539,-30.382568359375,27.02630615234375,164.5186157226562,150.7376556396484,25,526822.12871075,-0.267242431640625,-0.9515228271484375,-0.068115234375,526822.11361775,-0.02017823894731237,0.02342463231611896,0.0277480080297536,526822.01367475,2.963222862771713,-1.337329182291869,1.275308462997355,-0.007961325347423553,-0.0004834214341826737,0.02540692873299122,0.00333803566172719,0.001566803199239075,-0.001064419280737638,XTrueNorthZVertical,0.5377417369082789,0.4208897712845489,0.595085780356283,0.4237435182705122,-0.2833063006401062,-0.9566602110862732,-0.06737124919891357,-7.222404479980469,-19.5794849395752,28.85046577453613,1,526822.0982157501,stationary,1,2015-02-16 17:18:42.420,null,0,0,0,0,null,0,0.2501717,100.6644,192.168.1.3,10.191.100.224,1,0
2015-02-16 17:18:42.588,39,1424135914.649742,37.77917309860806,-122.4389002583513,58.1928,-1,-1,10,65,-9999,1424135922.578325,-15.82413101196289,-30.45196533203125,26.89218139648438,164.4531860351562,150.6722259521484,25,526822.2280260001,-0.282012939453125,-0.95556640625,-0.06451416015625,526822.2136,-0.01807780379556688,-0.02327842477227361,0.02032790860057482,526822.11361775,2.96578152646081,-1.337699804295953,1.27454975162356,-0.001628155005164444,0.0142164621502161,0.01789870299398899,0.01133228652179241,0.005221318453550339,-0.001383252441883087,XTrueNorthZVertical,0.5374316695387744,0.4212484509630222,0.5957208840127771,0.4228872212927058,-0.2840373516082764,-0.9564389586448669,-0.06743388622999191,-7.289283752441406,-19.55644989013672,28.84926986694336,1,526822.0982157501,stationary,1,2015-02-16 17:18:42.420,null,0,0,0,0,null,0,0.2501717,100.6644,192.168.1.3,10.191.100.224,1,0
2015-02-16 17:18:42.687,40,1424135914.649742,37.77917309860806,-122.4389002583513,58.1928,-1,-1,10,65,-9999,1424135922.578325,-15.82413101196289,-30.45196533203125,26.89218139648438,164.4531860351562,150.6722259521484,25,526822.3272910001,-0.2729949951171875,-0.95172119140625,-0.0626983642578125,526822.31353,-0.01384950293284807,-0.00740119098543921,0.005377987505306014,526822.2136,2.964431075037997,-1.336987191904576,1.275331824717946,0.0004741546290460974,-0.03248566761612892,0.01045938301831484,0.004193506203591824,0.001787229091860354,0.004337345249950886,XTrueNorthZVertical,0.5373819267295498,0.4212946557477266,0.5954276066263366,0.42331722569922,-0.2832615077495575,-0.9566670060157776,-0.06746295839548111,-7.283303260803223,-19.57199859619141,28.84023475646973,1,526822.0982157501,stationary,1,2015-02-16 17:18:42.420,null,0,0,0,0,null,0,0.2501717,100.6644,192.168.1.3,10.191.100.224,1,0
2015-02-16 17:18:42.788,41,1424135914.649742,37.77917309860806,-122.4389002583513,58.1928,-1,-1,10,65,-9999,1424135922.698731,-16.45065689086914,-29.96630859375,26.95925903320312,164.4010009765625,150.6200408935547,25,526822.426556,-0.2757110595703125,-0.9537506103515625,-0.0667724609375,526822.31353,-0.01384950293284807,-0.00740119098543921,0.005377987505306014,526822.31353,2.965083757597649,-1.337561909366264,1.276220517077022,0.004651917144656181,-0.01672957465052605,-0.00450791884213686,0.01449809689074755,0.008255952037870884,-0.001438856590539217,XTrueNorthZVertical,0.5372767898445764,0.421641837551811,0.5951850086068569,0.4234461570182278,-0.2824729382991791,-0.9569253921508789,-0.06710362434387207,-16.27829360961914,-30.48669052124023,26.85754013061523,1,526822.0982157501,stationary,1,2015-02-16 17:18:42.420,null,0,0,0,0,null,0,0.2501717,100.6644,192.168.1.3,10.191.100.224,1,0
2015-02-16 17:18:42.897,42,1424135914.649742,37.77917309860806,-122.4389002583513,58.1928,-1,-1,10,65,-9999,1424135922.820052,-16.79872894287109,-30.24382019042969,27.56253051757812,164.3064117431641,150.5254516601562,25,526822.52584,-0.27545166015625,-0.953369140625,-0.0658416748046875,526822.5133870001,-0.02561428336438211,-0.03075551584878008,-0.005221393633209354,526822.4134430001,2.966527669167168,-1.340854657169759,1.278185769289231,0.003512059105560184,-0.01687372289597988,-0.01519768126308918,0.004417246673256159,0.003117895685136318,0.001581186545081437,XTrueNorthZVertical,0.5376434344042343,0.4219802603902383,0.5941056598409794,0.424158805957783,-0.2808607220649719,-0.9574941396713257,-0.06574439257383347,-16.19060516357422,-30.49569892883301,26.90028381347656,1,526822.0982157501,stationary,1,2015-02-16 17:18:42.420,null,0,0,0,0,null,0,0.2501717,100.6644,192.168.1.3,10.191.100.224,1,0
2015-02-16 17:18:42.985,43,1424135914.649742,37.77917309860806,-122.4389002583513,58.1928,-1,-1,10,65,-9999,1424135922.936862,-16.38104629516602,-31.00700378417969,26.62405395507812,164.2308807373047,150.4499206542969,25,526822.6251160001,-0.28167724609375,-0.9488525390625,-0.064361572265625,526822.613322,-0.02986149267084048,-0.01694622664839221,0.0001065264436031695,526822.5133870001,2.963627041480768,-1.340318600513336,1.280236826264932,-0.007156186737120152,-0.04020480439066887,-0.01514975819736719,0.00436151959002018,0.003661738010123372,-0.0005786088295280933,XTrueNorthZVertical,0.5377743987307226,0.4219900595309427,0.5931108713298169,0.4253734952731282,-0.2789129018783569,-0.9580837488174438,-0.0654461681842804,-16.07677459716797,-30.52719306945801,26.93281173706055,1,526822.0982157501,stationary,1,2015-02-16 17:18:42.420,null,0,0,0,0,null,0,0.2501717,100.6644,192.168.1.3,10.191.100.224,1,0
2015-02-16 17:18:43.084,44,1424135914.649742,37.77917309860806,-122.4389002583513,58.1928,-1,-1,10,65,-9999,1424135923.056602,-16.38104629516602,-30.17445373535156,27.16049194335938,164.1852264404297,150.4042663574219,25,526822.724391,-0.2895965576171875,-0.949920654296875,-0.0617218017578125,526822.7132530001,-0.02024108954903824,-0.005267998952285741,0.007526625872781943,526822.613322,2.959113461422757,-1.338764283085262,1.280842592445749,-0.01143909059464931,-0.02651640959084034,-0.009864672087132931,-0.001417107996530831,0.008824731223285198,0.003627608763054013,XTrueNorthZVertical,0.5381705595748578,0.4213067520468953,0.5924128386913052,0.4265209590206571,-0.2782459855079651,-0.9582570791244507,-0.06574613600969315,-15.9356107711792,-30.58719635009766,26.94862747192383,1,526822.0982157501,stationary,1,2015-02-16 17:18:42.420,null,0,0,0,0,null,0,0.2501717,100.6644,192.168.1.3,10.191.100.224,1,0
2015-02-16 17:18:43.183,45,1424135914.649742,37.77917309860806,-122.4389002583513,58.1928,-1,-1,10,65,-9999,1424135923.178672,-16.10259246826172,-30.38258361816406,27.2945556640625,164.1838073730469,150.4028472900391,25,526822.823665,-0.2822723388671875,-0.9524688720703125,-0.0679168701171875,526822.813171,-0.02334633538007063,0.02981781682896318,0.03840917450555881,526822.7132530001,2.957632375230535,-1.339403785229153,1.280087672138703,-0.001818488934077322,-0.01483883429318666,-0.002432889305055141,-0.00935332290828228,0.001833718153648078,0.00326458690688014,XTrueNorthZVertical,0.5387892859725733,0.4205223783362236,0.5921179043514067,0.4269232395053246,-0.2789920270442963,-0.9580410122871399,-0.06573406606912613,-15.892653465271,-30.59981536865234,26.95966529846191,1,526822.0982157501,stationary,1,2015-02-16 17:18:42.420,null,0,0,0,0,null,0,0.2501717,100.6644,192.168.1.3,10.191.100.224,1,0
2015-02-16 17:18:43.283,46,1424135923.241578,37.77934094843688,-122.4387503760795,55.05701,-1,-1,10,65,-9999,1424135923.178672,-16.10259246826172,-30.38258361816406,27.2945556640625,164.1838073730469,150.4028472900391,25,526822.92293,-0.2722930908203125,-0.9524078369140625,-0.0849609375,526822.913103,-0.03621925714118665,0.1666089556920112,-0.002190183680481165,526822.813171,2.959286771552697,-1.338923369486995,1.277586635056798,-0.004952955991029739,0.02012646943330765,0.02841987088322639,0.002177727408707142,0.005310014355927706,-0.002413885667920113,XTrueNorthZVertical,0.5386884429149636,0.4202445783081776,0.5932395800515512,0.4257652956457401,-0.2812914848327637,-0.9573211073875427,-0.06641851365566254,-16.00304985046387,-30.56148147583008,26.93783378601074,1,526822.0982157501,stationary,1,2015-02-16 17:18:42.420,null,0,0,0,0,null,0,0.2501717,100.6644,192.168.1.3,10.191.100.224,1,0
2015-02-16 17:18:43.381,47,1424135923.241578,37.77934094843688,-122.4387503760795,55.05701,-1,-1,10,65,-9999,1424135923.290897,-16.58988952636719,-30.45195007324219,26.89242553710938,164.1661071777344,150.3851470947266,25,526823.022186,-0.2974853515625,-0.9399261474609375,-0.0639495849609375,526823.013046,-0.02233433416584052,0.1634312718793287,0.006297843345819383,526822.913103,2.960722954019948,-1.337818475969922,1.272476046890672,-0.01784253120422363,0.1567879617214203,-0.01226229872554541,0.007822073996067047,0.009145741350948811,0.00158902513794601,XTrueNorthZVertical,0.5388523761872005,0.4191767451022505,0.5951457814207697,0.423946343708214,-0.285974532365799,-0.9558315277099609,-0.06785794347524643,-16.15049171447754,-30.5032901763916,26.91578483581543,1,526822.0982157501,stationary,1,2015-02-16 17:18:42.420,null,0,0,0,0,null,0,0.2501717,100.6644,192.168.1.3,10.191.100.224,1,0
2015-02-16 17:18:43.481,48,1424135923.241578,37.77934094843688,-122.4387503760795,55.05701,-1,-1,10,65,-9999,1424135923.413172,-16.34623718261719,-30.90293884277344,27.06005859375,163.9358520507812,150.1548919677734,25,526823.121459,-0.2880401611328125,-0.9376373291015625,-0.06170654296875,526823.112981,-0.04051866440501057,0.0658107052774931,-0.005273591590574908,526823.013046,2.963006309928957,-1.335937550212864,1.268224575346084,-0.003955297637730837,0.1536088436841965,-0.003760908031836152,-0.01582235284149647,0.01080196350812912,0.008275071159005165,XTrueNorthZVertical,0.5384713478789983,0.4187818465584114,0.5972162032288475,0.421904265860199,-0.2897959351539612,-0.9545733332633972,-0.06934074312448502,-16.40449142456055,-30.45655632019043,26.81491470336914,1,526822.0982157501,stationary,1,2015-02-16 17:18:42.420,null,0,0,0,0,null,0,0.2501717,100.6644,192.168.1.3,10.191.100.224,1,0
2015-02-16 17:18:43.582,49,1424135923.241578,37.77934094843688,-122.4387503760795,55.05701,-1,-1,10,65,-9999,1424135923.53237,-16.93795013427734,-30.10508728027344,25.95394897460938,162.2058868408203,148.4249267578125,25,526823.2207330001,-0.235504150390625,-0.94500732421875,-0.05450439453125,526823.2129040001,0.01583888426713726,0.2883899860191546,-0.08346986014969951,526823.112981,2.965633002687113,-1.326672173408356,1.270642890466458,-0.02215169183909893,0.05586922541260719,-0.01542939897626638,0.0006758149247616529,0.0172113012522459,0.008873066864907742,XTrueNorthZVertical,0.5347734788700503,0.422238104282411,0.5996399669241681,0.4197192515241755,-0.2869001924991608,-0.9552911520004272,-0.07146462053060532,-16.71860504150391,-30.43027114868164,26.65024566650391,1,526822.0982157501,stationary,1,2015-02-16 17:18:42.420,null,0,0,0,0,null,0,0.2501717,100.6644,192.168.1.3,10.191.100.224,1,0
2015-02-16 17:18:43.679,50,1424135923.241578,37.77934094843688,-122.4387503760795,55.05701,-1,-1,10,65,-9999,1424135923.650295,-17.07717132568359,-31.07640075683594,26.02099609375,162.2936859130859,148.5127258300781,25,526823.319993,-0.203216552734375,-0.989837646484375,-0.005462646484375,526823.31285,-0.05951552509276379,-0.01250700342733913,0.07373174530771577,526823.2129040001,2.975777111288831,-1.320290741413562,1.276407077952431,0.03421955928206444,0.2783569693565369,-0.09370327740907669,0.03128206729888916,0.0111634936183691,0.01811000518500805,XTrueNorthZVertical,0.5298065474149877,0.4281835413475895,0.6019908034445257,0.41661850684658,-0.2810989618301392,-0.956979513168335,-0.0719277560710907,-16.98192596435547,-30.3955192565918,26.52310562133789,1,526822.0982157501,stationary,1,2015-02-16 17:18:42.420,null,0,0,0,0,null,0,0.2501717,100.6644,192.168.1.3,10.191.100.224,1,0
2015-02-16 17:18:43.787,51,1424135923.241578,37.77934094843688,-122.4387503760795,55.05701,-1,-1,10,65,-9999,1424135923.767678,-17.18158721923828,-30.69480895996094,25.786376953125,161.7237396240234,147.9427795410156,25,526823.4192690001,-0.1820068359375,-1.010772705078125,-0.0364227294921875,526823.31285,-0.05951552509276379,-0.01250700342733913,0.07373174530771577,526823.31285,2.980435770186952,-1.311690068328304,1.283930669054745,-0.0411192998290062,-0.02254458703100681,0.06346730142831802,0.07065214961767197,-0.03123626485466957,0.06486648321151733,XTrueNorthZVertical,0.5250366815209808,0.4336917616536331,0.6033051130950424,0.4150553094326042,-0.2735024988651276,-0.9591354131698608,-0.07249587774276733,-17.18931198120117,-30.44483757019043,26.3322639465332,1,526823.369621,unknown,1,2015-02-16 17:18:43.691,null,0,0,0,0,null,0,0.2501717,100.6644,192.168.1.3,10.191.100.224,1,0
2015-02-16 17:18:43.881,52,1424135923.241578,37.77934094843688,-122.4387503760795,55.05701,-1,-1,10,65,-9999,1424135923.767678,-17.18158721923828,-30.69480895996094,25.786376953125,161.7237396240234,147.9427795410156,25,526823.518531,-0.242279052734375,-0.9951171875,-0.0081787109375,526823.5126990001,-0.3217649871161366,-0.6645726752694253,0.1593710164813938,526823.412769,2.969039009874515,-1.313976925432205,1.275865956514934,-0.1359021812677383,-0.4456458389759064,0.1440073698759079,0.1064421683549881,-0.06051160022616386,0.03376305848360062,XTrueNorthZVertical,0.5294307084243418,0.4275357353073493,0.6023964533331462,0.4171748595826,-0.2811400294303894,-0.956822395324707,-0.07383263856172562,-17.10311889648438,-30.44388771057129,26.38942527770996,1,526823.369621,unknown,1,2015-02-16 17:18:43.691,null,0,0,0,0,null,0,0.2501717,100.6644,192.168.1.3,10.191.100.224,1,0
2015-02-16 17:18:43.980,53,1424135923.241578,37.77934094843688,-122.4387503760795,55.05701,-1,-1,10,65,-9999,1424135923.886405,-16.93793487548828,-31.21517944335938,25.95388793945312,162.7860717773438,149.0051116943359,25,526823.6178090001,-0.342742919921875,-0.933807373046875,-0.0012054443359375,526823.6126280001,-0.4502406717915212,-0.8186810191207136,-0.01381594710311307,526823.5126990001,2.908205578566415,-1.318592908932191,1.257862163077611,-0.3033452033996582,-0.6746498346328735,0.1489787995815277,0.05974000319838524,-0.04220270365476608,0.06705515831708908,XTrueNorthZVertical,0.5461210245221336,0.404155209924846,0.5928782008897844,0.4323261063350248,-0.2981128096580505,-0.9514343738555908,-0.07682078331708908,-16.05828475952148,-30.70478057861328,26.74128913879395,1,526823.369621,unknown,1,2015-02-16 17:18:43.691,null,0,0,0,0,null,0,0.2501717,100.6644,192.168.1.3,10.191.100.224,1,0
2015-02-16 17:18:44.122,54,1424135923.241578,37.77934094843688,-122.4387503760795,55.05701,-1,-1,10,65,-9999,1424135924.005252,-15.05835723876953,-31.56210327148438,25.48464965820312,166.5852966308594,152.8043365478516,25,526823.7170490001,-0.2371063232421875,-0.9276580810546875,-0.02899169921875,526823.712542,-0.4801959077327325,-0.4273015337421237,-0.08552795104011275,526823.6126280001,2.799095420275385,-1.301815763140288,1.240793179206219,-0.4318179190158844,-0.8288107514381409,-0.02428497560322285,-0.02940273098647594,0.006756045389920473,0.08310887962579727,XTrueNorthZVertical,0.5645995925143966,0.3717120806033921,0.5777887951951163,0.4574030693564091,-0.3123941421508789,-0.9460413455963135,-0.08611486107110977,-14.11568164825439,-31.5045108795166,26.90654373168945,1,526823.7090070001,unknown,2,2015-02-16 17:18:44.009,null,0,0,0,0,null,0,0.2501717,100.6644,192.168.1.3,10.191.100.224,1,0
2015-02-16 17:18:44.200,55,1424135923.241578,37.77934094843688,-122.4387503760795,55.05701,-1,-1,10,65,-9999,1424135924.106147,-13.90973663330078,-32.15182495117188,26.054443359375,169.6627044677734,155.8817443847656,25,526823.816344,-0.363616943359375,-1.015243530273438,-0.1237335205078125,526823.712542,-0.4801959077327325,-0.4273015337421237,-0.08552795104011275,526823.712542,2.666948338931448,-1.23135509336514,1.23746797557664,-0.4617588520050049,-0.437495231628418,-0.09607774764299393,0.06004676595330238,0.02489937283098698,0.08789942413568497,XTrueNorthZVertical,0.5685840606208437,0.3496305482439031,0.5676465976773217,0.4819211723213187,-0.3085208833217621,-0.9449585676193237,-0.1089412942528725,-12.11711597442627,-32.79402542114258,26.33392906188965,1,526823.7090070001,unknown,2,2015-02-16 17:18:44.009,null,0,0,0,0,null,0,0.2501717,100.6644,192.168.1.3,10.191.100.224,1,0
2015-02-16 17:18:44.277,56,1424135923.241578,37.77934094843688,-122.4387503760795,55.05701,-1,-1,10,65,-9999,1424135924.22311,-11.29922866821289,-33.43534851074219,24.88128662109375,175.5183868408203,161.7374267578125,25,526823.915611,-0.3759765625,-0.8415069580078125,-0.1953887939453125,526823.912415,-0.2937836861748921,-0.005267998952285741,-0.5842426820449292,526823.812491,2.522789975443407,-1.191171890798621,1.22983717152381,-0.4345325827598572,-1.2823166847229,-0.1997621357440948,-0.02958028018474579,-0.07692904025316238,0.01866080239415169,XTrueNorthZVertical,0.5818849680489339,0.3153599830224205,0.5455300548109974,0.5141546020491439,-0.3105838894844055,-0.9424343705177307,-0.123915933072567,-9.466224670410156,-34.17464065551758,25.65605163574219,1,526823.7090070001,unknown,2,2015-02-16 17:18:44.009,null,0,0,0,0,null,0,0.2501717,100.6644,192.168.1.3,10.191.100.224,1,0
2015-02-16 17:18:44.377,57,1424135923.241578,37.77934094843688,-122.4387503760795,55.05701,-1,-1,10,65,-9999,1424135924.341414,-8.30584716796875,-35.16984558105469,24.07684326171875,181.9981689453125,168.2172088623047,25,526824.014893,-0.138153076171875,-0.9463653564453125,-0.2151641845703125,526823.912415,-0.2937836861748921,-0.005267998952285741,-0.5842426820449292,526823.912415,2.373494837538771,-1.127978251895433,1.259976106436576,-0.2753462791442871,-0.01546155381947756,-0.5947933793067932,-0.1198841631412506,0.1053728312253952,-0.07911081612110138,XTrueNorthZVertical,0.5870296780007274,0.2997864482150752,0.5151516976218234,0.547853083859094,-0.2763408124446869,-0.9520830512046814,-0.1310484856367111,-5.958725929260254,-35.24420166015625,25.26041221618652,1,526823.7090070001,unknown,2,2015-02-16 17:18:44.009,null,0,0,0,0,null,0,0.2501717,100.6644,192.168.1.3,10.191.100.224,1,0
2015-02-16 17:18:44.475,58,1424135923.241578,37.77934094843688,-122.4387503760795,55.05701,-1,-1,10,65,-9999,1424135924.460992,-7.226829528808594,-35.06575012207031,24.1103515625,183.4494018554688,169.6684417724609,25,526824.114174,-0.2700042724609375,-0.9156494140625,-0.1756591796875,526824.012356,-0.01535498789706986,0.1333250347043099,-0.1674196219278313,526824.012356,2.25249705848932,-0.9757547499622389,1.283947677808838,0.003078270703554153,0.123132698237896,-0.1779755502939224,0.08835208415985107,0.01448387932032347,-0.04585739225149155,XTrueNorthZVertical,0.5664017990052426,0.3160560731470128,0.5180043704081232,0.5576460018615873,-0.2343024015426636,-0.9591402411460876,-0.1585951149463654,-5.021281242370605,-36.09693908691406,24.23935890197754,1,526823.7090070001,unknown,2,2015-02-16 17:18:44.009,null,0,0,0,0,null,0,0.2501717,100.6644,192.168.1.3,10.191.100.224,1,0
2015-02-16 17:18:44.576,59,1424135923.241578,37.77934094843688,-122.4387503760795,55.05701,-1,-1,10,65,-9999,1424135924.460992,-7.226829528808594,-35.06575012207031,24.1103515625,183.4494018554688,169.6684417724609,25,526824.2134400001,-0.587127685546875,-0.949981689453125,-0.15484619140625,526824.2122160001,-0.01915957983035706,-0.4582120455663464,0.05487336899664667,526824.112286,2.263707321016492,-1.053537970534257,1.285043354671542,-0.1094182804226875,-1.235182881355286,0.1424013376235962,-0.004629787523299456,0.02794638089835644,-0.04905663058161736,XTrueNorthZVertical,0.5844683989546544,0.2978287810920004,0.4984238307051963,0.5668054544598252,-0.2450039982795715,-0.9594496488571167,-0.1393894106149673,-3.966808795928955,-36.00128936767578,24.57479095458984,1,526823.7090070001,unknown,2,2015-02-16 17:18:44.009,null,0,0,0,0,null,0,0.2501717,100.6644,192.168.1.3,10.191.100.224,1,0
2015-02-16 17:18:44.676,60,1424135923.241578,37.77934094843688,-122.4387503760795,55.05701,-1,-1,10,65,-9999,1424135924.578792,-4.790359497070312,-35.75953674316406,24.44549560546875,189.0134124755859,175.2324523925781,25,526824.3127230001,-0.312835693359375,-0.896575927734375,-0.2373504638671875,526824.2122160001,-0.01915957983035706,-0.4582120455663464,0.05487336899664667,526824.2122160001,2.24631417847925,-1.154734036733075,1.265925254637861,-0.0007272386574186385,-0.4684039652347565,0.04431811347603798,-0.3094834089279175,0.005521403159946203,-0.01630164869129658,XTrueNorthZVertical,0.6112582516620444,0.2563292127240351,0.4692673306557457,0.5834782663494702,-0.2745620012283325,-0.9538856744766235,-0.1213173717260361,-1.28520679473877,-36.31171798706055,24.40402030944824,1,526823.7090070001,unknown,2,2015-02-16 17:18:44.009,null,0,0,0,0,null,0,0.2501717,100.6644,192.168.1.3,10.191.100.224,1,0
2015-02-16 17:18:44.774,61,1424135923.241578,37.77934094843688,-122.4387503760795,55.05701,-1,-1,10,65,-9999,1424135924.69741,-4.442291259765625,-35.75953674316406,25.24993896484375,189.572509765625,175.7915496826172,25,526824.412013,-0.29461669921875,-0.863922119140625,-0.20159912109375,526824.312146,-0.1112365103070837,0.4146011848196448,-0.1610195131961529,526824.312146,2.241650084472569,-1.120370764335692,1.274531095163929,-0.09280454367399216,0.4044094681739807,-0.1715745627880096,-0.07392974942922592,0.05764507129788399,-0.114797405898571,XTrueNorthZVertical,0.6037799800888528,0.2681410981727581,0.4756005845553232,0.580822005031543,-0.2628317177295685,-0.9564335346221924,-0.1271001696586609,-1.365528106689453,-36.24928283691406,24.4923152923584,1,526823.7090070001,unknown,2,2015-02-16 17:18:44.009,null,0,0,0,0,null,0,0.2501717,100.6644,192.168.1.3,10.191.100.224,1,0
2015-02-16 17:18:44.873,62,1424135923.241578,37.77934094843688,-122.4387503760795,55.05701,-1,-1,10,65,-9999,1424135924.816466,-4.477119445800781,-35.58609008789062,24.14389038085938,189.3013458251953,175.5203857421875,25,526824.511289,-0.3510589599609375,-0.90374755859375,-0.2449951171875,526824.5120120001,-0.08772346104277408,-0.3395967148269802,-0.07187126097018642,526824.412079,2.170179827137011,-1.045485982251605,1.277159984796099,-0.1437842100858688,-0.1225822120904922,-0.0483248382806778,-0.04420676827430725,0.09327560663223267,-0.05645285546779633,XTrueNorthZVertical,0.5956111051299474,0.2695816731773574,0.476326982649433,0.5879504817384549,-0.2504099309444427,-0.9571977257728577,-0.1451462656259537,-1.207855224609375,-36.67316818237305,23.86144256591797,1,526823.7090070001,unknown,2,2015-02-16 17:18:44.009,null,0,0,0,0,null,0,0.2501717,100.6644,192.168.1.3,10.191.100.224,1,0
2015-02-16 17:18:44.977,63,1424135923.241578,37.77934094843688,-122.4387503760795,55.05701,-1,-1,10,65,-9999,1424135924.934285,-3.850608825683594,-35.79421997070312,23.60760498046875,190.3244476318359,176.5434875488281,25,526824.610558,-0.2045440673828125,-0.8788604736328125,-0.1317596435546875,526824.5120120001,-0.08772346104277408,-0.3395967148269802,-0.07187126097018642,526824.5120120001,2.141225247319913,-1.025938502722105,1.260641257400685,-0.06935423612594604,-0.3497757911682129,-0.08239120244979858,-0.09004615247249603,0.0485386960208416,-0.08680770546197891,XTrueNorthZVertical,0.5941796284312566,0.260493502980486,0.4789104849468101,0.5913869138845361,-0.2610128223896027,-0.9522862434387207,-0.1581874042749405,-4.974113464355469,-35.70441436767578,23.92406272888184,1,526823.7090070001,unknown,2,2015-02-16 17:18:44.009,null,0,0,0,0,null,0,0.2501717,100.6644,192.168.1.3,10.191.100.224,1,0
2015-02-16 17:18:45.071,64,1424135923.241578,37.77934094843688,-122.4387503760795,55.05701,-1,-1,10,65,-9999,1424135925.034867,-4.685958862304688,-35.51670837402344,23.74169921875,188.3018035888672,174.5208435058594,25,526824.7098330001,-0.152587890625,-1.005599975585938,-0.171905517578125,526824.611943,0.1173769608324794,0.9398047812908255,-0.05778260617144923,526824.611943,2.1566556129603,-1.000153475552591,1.263194617465178,0.1357356905937195,0.9296207427978516,-0.06823625415563583,0.05025646463036537,0.07420197874307632,0.03179067373275757,XTrueNorthZVertical,0.5859796733359274,0.2735921481163506,0.4902367047603234,0.5843313808752318,-0.2548005282878876,-0.9530624747276306,-0.1635503172874451,-5.305685043334961,-35.76109313964844,23.76766204833984,1,526823.7090070001,unknown,2,2015-02-16 17:18:44.009,null,0,0,0,0,null,0,0.2501717,100.6644,192.168.1.3,10.191.100.224,1,0
2015-02-16 17:18:45.171,65,1424135923.241578,37.77934094843688,-122.4387503760795,55.05701,-1,-1,10,65,-9999,1424135925.152359,-7.01800537109375,-35.41264343261719,24.04330444335938,184.2829742431641,170.5020141601562,25,526824.8091130001,-0.2401123046875,-0.931732177734375,-0.1876220703125,526824.711874,0.1522633058480814,0.2604321208955028,0.2827872277178459,526824.711874,2.220944354898648,-1.005610440284188,1.260906920569577,0.1706345081329346,0.2501710951328278,0.2722245454788208,0.1049419194459915,-0.05323267355561256,-0.008580772206187248,XTrueNorthZVertical,0.578201872619322,0.2898624186817969,0.5079147537533374,0.5689332176088414,-0.2575297951698303,-0.9523673057556152,-0.1633247435092926,-7.57585334777832,-35.30369186401367,23.83617782592773,1,526823.7090070001,unknown,2,2015-02-16 17:18:44.009,null,0,0,0,0,null,0,0.2056961,100.6649,192.168.1.3,10.191.100.224,1,0
