loggingTime,loggingSample,locationTimestamp_since1970,locationLatitude,locationLongitude,locationAltitude,locationSpeed,locationCourse,locationVerticalAccuracy,locationHorizontalAccuracy,locationFloor,locationHeadingTimestamp_since1970,locationHeadingX,locationHeadingY,locationHeadingZ,locationTrueHeading,locationMagneticHeading,locationHeadingAccuracy,accelerometerTimestamp_sinceReboot,accelerometerAccelerationX,accelerometerAccelerationY,accelerometerAccelerationZ,gyroTimestamp_sinceReboot,gyroRotationX,gyroRotationY,gyroRotationZ,motionTimestamp_sinceReboot,motionYaw,motionRoll,motionPitch,motionRotationRateX,motionRotationRateY,motionRotationRateZ,motionUserAccelerationX,motionUserAccelerationY,motionUserAccelerationZ,motionAttitudeReferenceFrame,motionQuaternionX,motionQuaternionY,motionQuaternionZ,motionQuaternionW,motionGravityX,motionGravityY,motionGravityZ,motionMagneticFieldX,motionMagneticFieldY,motionMagneticFieldZ,motionMagneticFieldCalibrationAccuracy,activityTimestamp_sinceReboot,activity,activityActivityConfidence,activityActivityStartDate,pedometerStartDate,pedometerNumberofSteps,pedometerDistance,pedometerFloorAscended,pedometerFloorDescended,pedometerEndDate,altimeterTimestamp_sinceReboot,altimeterReset,altimeterRelativeAltitude,altimeterPressure,IP_en0,IP_pdp_ip0,deviceOrientation,state
2015-02-16 17:19:35.990,1,1424135975.473297,37.77934141229023,-122.4386887102898,53.00632,2.831184,41.89895368912357,48.05896443432796,200,-9999,1424135975.983895,-26.44026947021484,-33.18252563476562,20.98974609375,150.2565002441406,136.4755401611328,25,526875.6285792501,-0.475433349609375,-0.846893310546875,-0.1265411376953125,526875.57829125,0.09979610289632128,-0.01000629516375472,-0.1590945803602436,526875.57829125,2.818898005441542,-1.265822326128148,1.040962240818735,0.1153419762849808,-0.01348253805190325,-0.1684721261262894,0.008939607068896294,0.006994937546551228,-0.005443340167403221,XTrueNorthZVertical,0.5709196726004634,0.3133279035937324,0.6431973520113821,0.4027077713137548,-0.4820688664913177,-0.8628909587860107,-0.1517527103424072,-26.25333595275879,-33.66204452514648,18.75017166137695,1,526861.826780375,unknown,2,2015-02-16 17:19:22.123,null,0,0,0,0,null,0,-0.03335571,100.6677,192.168.1.3,10.191.100.224,3,0
2015-02-16 17:19:36.097,2,1424135975.473297,37.77934141229023,-122.4386887102898,53.00632,2.831184,41.89895368912357,48.05896443432796,200,-9999,1424135975.983895,-26.44026947021484,-33.18252563476562,20.98974609375,150.2565002441406,136.4755401611328,25,526875.7278322501,-0.44219970703125,-0.8712921142578125,-0.160552978515625,526875.67823025,0.04775713624784594,0.1196345224885395,-0.09405432758611044,526875.67823025,2.829658980367969,-1.283334974997507,1.04797074622728,0.06331072747707367,0.1161524504423141,-0.1034238710999489,-0.01351421047002077,0.01336914021521807,-0.007859863340854645,XTrueNorthZVertical,0.5741990195890145,0.3154532565856828,0.6386801138585948,0.4035746169144963,-0.4788411259651184,-0.8664117455482483,-0.1415694504976273,-25.85218048095703,-33.75498962402344,19.1364917755127,1,526861.826780375,unknown,2,2015-02-16 17:19:22.123,null,0,0,0,0,null,0,-0.03335571,100.6677,192.168.1.3,10.191.100.224,3,0
2015-02-16 17:19:36.189,3,1424135975.473297,37.77934141229023,-122.4386887102898,53.00632,2.831184,41.89895368912357,48.05896443432796,200,-9999,1424135976.103137,-25.77952575683594,-33.702880859375,21.02325439453125,151.3768310546875,137.5958709716797,25,526875.8270852501,-0.461944580078125,-0.854522705078125,-0.1495819091796875,526875.7781642501,-0.04479596743178683,-0.08694794853334301,0.004484763275693437,526875.7781642501,2.83076852448496,-1.283418714990923,1.052905932691666,-0.02924775891005993,-0.09042558073997498,-0.00488698435947299,-0.00686653470620513,0.006774404551833868,0.002147350460290909,XTrueNorthZVertical,0.5735837536594708,0.3175591831780702,0.6377028756238636,0.4043425720621707,-0.4747466146945953,-0.8688654899597168,-0.1403156816959381,-25.7619514465332,-33.76291656494141,19.2438850402832,1,526861.826780375,unknown,2,2015-02-16 17:19:22.123,null,0,0,0,0,null,0,-0.03335571,100.6677,192.168.1.3,10.191.100.224,3,0
2015-02-16 17:19:36.287,4,1424135975.473297,37.77934141229023,-122.4386887102898,53.00632,2.831184,41.89895368912357,48.05896443432796,200,-9999,1424135976.221556,-25.08400726318359,-33.56413269042969,21.22445678710938,152.3588562011719,138.5778961181641,25,526875.92632825,-0.4334259033203125,-0.888580322265625,-0.15069580078125,526875.8780872501,0.005543369808999934,-0.2075587858775056,-0.2918398448952432,526875.8780872501,2.822086977875547,-1.28625523479181,1.067046958683478,0.02109136059880257,-0.2110363692045212,-0.3012179732322693,0.04573097825050354,0.02110356278717518,0.01329800207167864,XTrueNorthZVertical,0.5745184973114439,0.3196492988915901,0.631719845111299,0.4107102259516789,-0.4633029997348785,-0.87577885389328,-0.1355056464672089,-25.40216064453125,-33.94807434082031,19.39583206176758,1,526861.826780375,unknown,2,2015-02-16 17:19:22.123,null,0,0,0,0,null,0,-0.03335571,100.6677,192.168.1.3,10.191.100.224,1,0
2015-02-16 17:19:36.388,5,1424135975.473297,37.77934141229023,-122.4386887102898,53.00632,2.831184,41.89895368912357,48.05896443432796,200,-9999,1424135976.321969,-24.70147705078125,-34.01509094238281,21.52633666992188,153.0211334228516,139.2401733398438,25,526876.02559825,-0.4644775390625,-0.9018096923828125,-0.0647735595703125,526875.9780322501,0.02562200653154334,-0.2427335512391632,-0.354747438268441,526875.9780322501,2.803614543717746,-1.309900971788387,1.096500428525396,0.04116885736584663,-0.246210440993309,-0.3641283512115479,0.06599742919206619,0.01455347891896963,0.03034358471632004,XTrueNorthZVertical,0.5819602798474206,0.320029297043838,0.6138074470294808,0.4267832355286428,-0.4412568211555481,-0.8896145224571228,-0.11780696362257,-23.31594848632812,-34.82342529296875,20.43613052368164,1,526861.826780375,unknown,2,2015-02-16 17:19:22.123,null,0,0,0,0,null,0,-0.03335571,100.6677,192.168.1.3,10.191.100.224,1,0
2015-02-16 17:19:36.500,6,1424135976.472768,37.77937369340655,-122.4386726476858,57.59465,2.102219,-1,15.18283750448183,200,-9999,1424135976.439277,-22.02373886108398,-34.95170593261719,23.03561401367188,157.9602966308594,144.1793365478516,25,526876.12484225,-0.4126739501953125,-0.914031982421875,-0.0901031494140625,526876.0779582501,0.1401230197028461,0.1054204328024596,-0.2403327115164567,526876.0779582501,2.806297824484066,-1.356110107065361,1.125751365612315,0.1556712687015533,0.1019423231482506,-0.2497089505195618,-0.07187698036432266,0.02563818544149399,0.0004357009602244943,XTrueNorthZVertical,0.5924128219328805,0.3212322521824424,0.5935569183470122,0.4399398864541852,-0.4206157028675079,-0.9025912880897522,-0.09171377867460251,-21.30981063842773,-35.35340881347656,21.67875862121582,1,526861.826780375,unknown,2,2015-02-16 17:19:22.123,null,0,0,0,0,null,0,-0.03335571,100.6677,192.168.1.3,10.191.100.224,1,0
2015-02-16 17:19:36.587,7,1424135976.472768,37.77937369340655,-122.4386726476858,57.59465,2.102219,-1,15.18283750448183,200,-9999,1424135976.557823,-21.32821273803711,-34.88233947753906,23.30392456054688,158.6495819091797,144.8686218261719,25,526876.2240862501,-0.39923095703125,-0.93963623046875,-0.06787109375,526876.1779002501,0.05604595882460856,-0.06196616592785471,-0.1653061372867444,526876.1779002501,2.825783409302229,-1.354890463058219,1.151783945188356,0.07161813229322433,-0.06549346446990967,-0.174687534570694,0.03631315007805824,-0.01830200664699078,0.01591897383332253,XTrueNorthZVertical,0.585889892909941,0.3363805928992619,0.5916940058855605,0.4398628922169093,-0.3974123895168304,-0.9134911894798279,-0.08716226369142532,-20.90612602233887,-35.52639770507812,21.78873252868652,1,526861.826780375,unknown,2,2015-02-16 17:19:22.123,null,0,0,0,0,null,0,-0.03335571,100.6677,192.168.1.3,10.191.100.224,1,0
2015-02-16 17:19:36.687,8,1424135976.472768,37.77937369340655,-122.4386726476858,57.59465,2.102219,-1,15.18283750448183,200,-9999,1424135976.677416,-20.45882415771484,-35.47207641601562,23.33746337890625,160.1761016845703,146.3951416015625,25,526876.32334725,-0.3886260986328125,-0.9317169189453125,-0.0778350830078125,526876.27783225,-0.0237082589722124,0.01148834431038382,-0.09159995832549342,526876.27783225,2.825276360140883,-1.36596507242115,1.165179157271439,-0.008131952024996281,0.007958456873893738,-0.1009847298264503,-0.01721188984811306,-0.02445455268025398,0.005277869757264853,XTrueNorthZVertical,0.5876418198971548,0.3384483886818638,0.5849632098918212,0.4449133097843608,-0.3863373100757599,-0.91885906457901,-0.08025956153869629,-20.1116886138916,-35.74710464477539,22.17215347290039,1,526861.826780375,unknown,2,2015-02-16 17:19:22.123,null,0,0,0,0,null,0,-0.03335571,100.6677,192.168.1.3,10.191.100.224,1,0
2015-02-16 17:19:36.784,9,1424135976.472768,37.77937369340655,-122.4386726476858,57.59465,2.102219,-1,15.18283750448183,200,-9999,1424135976.677416,-20.45882415771484,-35.47207641601562,23.33746337890625,160.1761016845703,146.3951416015625,25,526876.42260325,-0.3311309814453125,-0.9214935302734375,-0.0681915283203125,526876.37777225,-0.08333537051465051,0.1961961427705735,-0.07668519095661365,526876.37777225,2.814180780422729,-1.344796873612574,1.173361407335405,-0.06775086373090744,0.1926612854003906,-0.08607196807861328,0.006911696400493383,-0.008637728169560432,0.01997417770326138,XTrueNorthZVertical,0.5823598580379267,0.3427700483932711,0.5866035251659513,0.4463877511502841,-0.3772119879722595,-0.9220568537712097,-0.08673138171434402,-19.99853134155273,-35.91957855224609,21.99505233764648,1,526861.826780375,unknown,2,2015-02-16 17:19:22.123,null,0,0,0,0,null,0,-0.03335571,100.6677,192.168.1.3,10.191.100.224,1,0
2015-02-16 17:19:36.903,10,1424135976.472768,37.77937369340655,-122.4386726476858,57.59465,2.102219,-1,15.18283750448183,200,-9999,1424135976.796842,-20.56314849853516,-35.8536376953125,23.37094116210938,160.1352386474609,146.3542785644531,25,526876.52185825,-0.317108154296875,-0.910247802734375,-0.0770721435546875,526876.47770325,-0.02166934284164774,-0.09360824810352217,-0.1160142213026858,526876.47770325,2.800617373002291,-1.325405471699229,1.186551174795146,-0.006077420432120562,-0.09714758396148682,-0.1254130154848099,0.04127246141433716,0.01820714771747589,0.01939614675939083,XTrueNorthZVertical,0.577493898107289,0.3478037639103147,0.5857815694456447,0.4498814541632845,-0.3636296391487122,-0.9270816445350647,-0.09106668084859848,-19.73421478271484,-36.28270721435547,21.63482475280762,1,526861.826780375,unknown,2,2015-02-16 17:19:22.123,null,0,0,0,0,null,0,-0.0277977,100.6677,192.168.1.3,10.191.100.224,1,0
2015-02-16 17:19:36.986,11,1424135976.472768,37.77937369340655,-122.4386726476858,57.59465,2.102219,-1,15.18283750448183,200,-9999,1424135976.915873,-18.78958129882812,-36.30462646484375,22.9349365234375,161.0584411621094,147.2774810791016,25,526876.62111225,-0.3153228759765625,-0.925323486328125,-0.058837890625,526876.57764825,0.1209575809180909,-0.2827845645567558,-0.1940560265185858,526876.57764825,2.808905174380111,-1.352376136270164,1.207830026055508,0.136551558971405,-0.2863254249095917,-0.2034733891487122,0.03121413104236126,0.01956455409526825,0.001266368082724512,XTrueNorthZVertical,0.5813546145594342,0.3515102567520096,0.5742972011184424,0.4567823406828678,-0.3466132879257202,-0.9348477721214294,-0.07693470269441605,-18.85091972351074,-36.49149322509766,22.0670223236084,1,526861.826780375,unknown,2,2015-02-16 17:19:22.123,null,0,0,0,0,null,0,-0.0277977,100.6677,192.168.1.3,10.191.100.224,1,0
2015-02-16 17:19:37.080,12,1424135976.472768,37.77937369340655,-122.4386726476858,57.59465,2.102219,-1,15.18283750448183,200,-9999,1424135977.036437,-18.30271911621094,-36.027099609375,24.47775268554688,163.5294799804688,149.7485198974609,25,526876.72035225,-0.3271942138671875,-0.94122314453125,-0.0355682373046875,526876.6775792501,0.2027840043591025,-0.3403788852391365,-0.2912321115344871,526876.6775792501,2.850915430786682,-1.423696531913081,1.239764955237645,0.2183815985918045,-0.3439214825630188,-0.3006622791290283,0.008566063828766346,0.01928551308810711,-0.004135128110647202,XTrueNorthZVertical,0.5897962689275363,0.3582197502645377,0.5548264992406152,0.4647435398836459,-0.3215085566043854,-0.9457076191902161,-0.0476379431784153,-16.79772567749023,-36.5838508605957,23.5244140625,1,526861.826780375,unknown,2,2015-02-16 17:19:22.123,null,0,0,0,0,null,0,-0.0277977,100.6677,192.168.1.3,10.191.100.224,1,0
2015-02-16 17:19:37.182,13,1424135976.472768,37.77937369340655,-122.4386726476858,57.59465,2.102219,-1,15.18283750448183,200,-9999,1424135977.152517,-15.45109176635742,-36.79029846191406,25.48394775390625,168.3312835693359,154.5503234863281,25,526876.81963325,-0.3312835693359375,-0.956634521484375,-0.013946533203125,526876.7775062501,0.1727960115364833,-0.2662010604488324,-0.345572848313118,526876.7775062501,2.909265010560593,-1.513800160461268,1.270957408617172,0.1883912533521652,-0.2697425484657288,-0.3549849689006805,-0.04587248712778091,0.003601853037253022,0.0006665824912488461,XTrueNorthZVertical,0.5989123113417786,0.3645424848603692,0.5338721552192883,0.4726450807743551,-0.2948867976665497,-0.9553840756416321,-0.01682564057409763,-15.0685338973999,-36.53433609008789,24.7410888671875,1,526861.826780375,unknown,2,2015-02-16 17:19:22.123,null,0,0,0,0,null,0,-0.0277977,100.6677,192.168.1.3,10.191.100.224,1,0
2015-02-16 17:19:37.280,14,1424135976.472768,37.77937369340655,-122.4386726476858,57.59465,2.102219,-1,15.18283750448183,200,-9999,1424135977.271727,-13.7470817565918,-35.992431640625,26.9932861328125,170.7550659179688,156.9741058349609,25,526876.9188962501,-0.3020782470703125,-0.950653076171875,-0.014923095703125,526876.87744125,0.04712596706949716,-0.1779018239783832,-0.2962574965114667,526876.87744125,2.948294829025965,-1.570405257855883,1.297248971874886,0.062713623046875,-0.1814394593238831,-0.3056336045265198,-0.04027612507343292,0.01131107471883297,-0.01561090629547834,XTrueNorthZVertical,0.6019929133869344,0.3708796420002617,0.5197723373923988,0.4794680084290487,-0.2701486945152283,-0.9628186225891113,-0.0001056467663147487,-13.49107551574707,-36.57564163208008,25.576416015625,1,526861.826780375,unknown,2,2015-02-16 17:19:22.123,null,0,0,0,0,null,0,-0.0277977,100.6677,192.168.1.3,10.191.100.224,1,0
2015-02-16 17:19:37.382,15,1424135976.472768,37.77937369340655,-122.4386726476858,57.59465,2.102219,-1,15.18283750448183,200,-9999,1424135977.271727,-13.7470817565918,-35.992431640625,26.9932861328125,170.7550659179688,156.9741058349609,25,526877.01816125,-0.3251495361328125,-0.947601318359375,-0.008880615234375,526876.9773752501,-0.1009276800434959,-0.1574628615603521,-0.237214682512192,526876.9773752501,2.927709583999122,-1.568986967942521,1.314168627448058,-0.08535387367010117,-0.1609940379858017,-0.2465540170669556,-0.05610142275691032,0.01908554136753082,-0.01310581155121326,XTrueNorthZVertical,0.6023109488777735,0.3701241616287043,0.5111163277936812,0.4888657850033222,-0.2538198530673981,-0.9672514200210571,-0.0004592516925185919,-12.45517921447754,-36.86225128173828,25.69012641906738,1,526861.826780375,unknown,2,2015-02-16 17:19:22.123,null,0,0,0,0,null,0,-0.0277977,100.6677,192.168.1.3,10.191.100.224,1,0
2015-02-16 17:19:37.479,16,1424135976.472768,37.77937369340655,-122.4386726476858,57.59465,2.102219,-1,15.18283750448183,200,-9999,1424135977.390701,-11.90397262573242,-36.79029846191406,27.56350708007812,173.64599609375,159.8650360107422,25,526877.11742625,-0.308746337890625,-0.88671875,-0.0242919921875,526877.0773032501,-0.1643287571666854,0.1402817441038149,-0.4419585071174838,526877.0773032501,2.87269966901015,-1.516617167247531,1.331677983984264,-0.1487640589475632,0.1367505937814713,-0.4512364268302917,-0.07969388365745544,0.04080681130290031,-0.0001898919581435621,XTrueNorthZVertical,0.5960346911711756,0.3719270349966818,0.5088323223560266,0.4974963575026832,-0.2364987432956696,-0.9715471863746643,-0.01282585505396128,-11.71939468383789,-37.37850189208984,25.2872142791748,1,526861.826780375,unknown,2,2015-02-16 17:19:22.123,null,0,0,0,0,null,0,-0.0277977,100.6677,192.168.1.3,10.191.100.224,1,0
2015-02-16 17:19:37.578,17,1424135976.472768,37.77937369340655,-122.4386726476858,57.59465,2.102219,-1,15.18283750448183,200,-9999,1424135977.509766,-9.46966552734375,-37.76161193847656,26.35610961914062,178.3409271240234,164.5599670410156,25,526877.2167225,-0.2100372314453125,-0.6983184814453125,-0.0462493896484375,526877.1772422501,-0.2594933566112498,0.5339014805913794,-0.9611167279141846,526877.1772422501,2.747619643326255,-1.362287006093522,1.39339787177274,-0.243902787566185,0.5303137898445129,-0.9703883528709412,-0.107549749314785,0.1803052574396133,0.01806638389825821,XTrueNorthZVertical,0.5711675328744138,0.3943385474700107,0.5052157164039184,0.5128565781107608,-0.1726473867893219,-0.9843060970306396,-0.03652951866388321,-10.47635078430176,-38.25860977172852,24.5043773651123,1,526861.826780375,unknown,2,2015-02-16 17:19:22.123,null,0,0,0,0,null,0,-0.0277977,100.6677,192.168.1.3,10.191.100.224,1,0
2015-02-16 17:19:37.677,18,1424135976.472768,37.77937369340655,-122.4386726476858,57.59465,2.102219,-1,15.18283750448183,200,-9999,1424135977.6285,-6.757148742675781,-39.63490295410156,24.67904663085938,181.7054901123047,167.9245300292969,25,526877.3159775001,0.12139892578125,-0.7289886474609375,0.06011962890625,526877.2772225001,-0.3704739371375769,1.24292417866699,-1.832260688928914,526877.2772225001,1.685092373092177,-0.2122581132699616,1.489990839392001,-0.3548836708068848,1.239336609840393,-1.841532230377197,0.004034703131765127,0.4144463539123535,-0.01730023510754108,XTrueNorthZVertical,0.5068091448536458,0.4513216985109628,0.497742228111108,0.5400980651182626,-0.01700467430055141,-0.996737003326416,-0.07890643179416656,-7.018404960632324,-40.20480728149414,22.54451370239258,1,526861.826780375,unknown,2,2015-02-16 17:19:22.123,null,0,0,0,0,null,0,-0.0277977,100.6677,192.168.1.3,10.191.100.224,1,0
2015-02-16 17:19:37.779,19,1424135976.472768,37.77937369340655,-122.4386726476858,57.59465,2.102219,-1,15.18283750448183,200,-9999,1424135977.747327,-2.375404357910156,-41.57752990722656,22.53244018554688,185.106201171875,171.3252410888672,25,526877.4152305,0.22332763671875,-0.82305908203125,-0.0048370361328125,526877.3771755,-0.3112817198011487,0.8576838122332511,-0.4347770269219761,526877.3771755,0.8127053562122333,0.7711040090145557,1.432184478490531,-0.2956917881965637,0.8540962934494019,-0.444048285484314,0.1672410517930984,0.1102360188961029,0.255443274974823,XTrueNorthZVertical,0.4465867996994254,0.5010159630404294,0.5030529316154451,0.5445007011470313,0.09629348665475845,-0.9904087781906128,-0.09908647090196609,-4.19632625579834,-41.45370101928711,20.92656707763672,1,526861.826780375,unknown,2,2015-02-16 17:19:22.123,null,0,0,0,0,null,0,-0.0277977,100.6677,192.168.1.3,10.191.100.224,1,0
2015-02-16 17:19:37.877,20,1424135976.472768,37.77937369340655,-122.4386726476858,57.59465,2.102219,-1,15.18283750448183,200,-9999,1424135977.864386,0.5457687377929688,-41.43879699707031,22.06283569335938,188.5267791748047,174.7458190917969,25,526877.5144655,0.20538330078125,-0.6845245361328125,-0.084686279296875,526877.4771105,-0.2419359344926844,-0.7441434012671398,-0.2745724410193875,526877.4771105,0.6517905017917528,0.9099997055637492,1.389512819585091,-0.2263463139533997,-0.7477307915687561,-0.2838435173034668,0.07997910678386688,0.1652232110500336,0.156597912311554,XTrueNorthZVertical,0.4367116705029016,0.5039405374650076,0.4874595443156554,0.5636577637584921,0.1423414498567581,-0.9836130738258362,-0.1106537058949471,-2.448023319244385,-41.94435882568359,20.21429634094238,1,526861.826780375,unknown,2,2015-02-16 17:19:22.123,null,0,0,0,0,null,0,-0.0277977,100.6677,192.168.1.3,10.191.100.224,1,0
2015-02-16 17:19:37.977,21,1424135976.472768,37.77937369340655,-122.4386726476858,57.59465,2.102219,-1,15.18283750448183,200,-9999,1424135977.864386,0.5457687377929688,-41.43879699707031,22.06283569335938,188.5267791748047,174.7458190917969,25,526877.6137195,0.0515594482421875,-0.7299041748046875,-0.0862274169921875,526877.5770275,-0.5681947396322208,-0.5104134650413166,-0.2812894659207854,526877.5770275,0.6865720688065982,0.7906034081860677,1.319013844392394,-0.5526054501533508,-0.5140008330345154,-0.2905603647232056,-0.08546283841133118,0.3025610744953156,0.04807593673467636,XTrueNorthZVertical,0.4300476984038923,0.4769042202789177,0.4676721042628848,0.6073748225894811,0.1770766079425812,-0.9684699177742004,-0.1752426773309708,1.336733341217041,-42.81099319458008,18.42203712463379,1,526861.826780375,unknown,2,2015-02-16 17:19:22.123,null,0,0,0,0,null,0,-0.0277977,100.6677,192.168.1.3,10.191.100.224,1,0
2015-02-16 17:19:38.076,22,1424135976.472768,37.77937369340655,-122.4386726476858,57.59465,2.102219,-1,15.18283750448183,200,-9999,1424135977.982221,3.67559814453125,-42.82640075683594,19.24539184570312,193.9691925048828,180.188232421875,25,526877.7129625001,0.0816192626953125,-1.073822021484375,-0.0552825927734375,526877.6769785,-0.3043891925839146,1.184429443220054,0.4910618712963648,526877.6769785,0.8297257548216105,0.6986154031487418,1.297745331497908,-0.2888001799583435,1.180842161178589,0.4817911386489868,-0.05681798979640007,0.09945774078369141,0.1220842823386192,XTrueNorthZVertical,0.4097183042857814,0.4784171398851144,0.4910259701613859,0.6017819193595028,0.1734409183263779,-0.9629526138305664,-0.2064958959817886,1.576165676116943,-43.53910064697266,16.60728454589844,1,526861.826780375,unknown,2,2015-02-16 17:19:22.123,null,0,0,0,0,null,0,-0.0277977,100.6677,192.168.1.3,10.191.100.224,1,0
2015-02-16 17:19:38.176,23,1424135976.472768,37.77937369340655,-122.4386726476858,57.59465,2.102219,-1,15.18283750448183,200,-9999,1424135978.100604,0.928314208984375,-43.55488586425781,17.93731689453125,188.8850860595703,175.1041259765625,25,526877.8121865001,0.10650634765625,-1.152435302734375,-0.1845855712890625,526877.7768995001,-0.02756824465617325,1.091329326252519,0.7322638385926233,526877.7768995001,1.085721424571253,0.576514388335457,1.331974112910922,-0.01197935361415148,1.08774209022522,0.7229933142662048,0.03488437086343765,-0.1060041934251785,0.02774504758417606,XTrueNorthZVertical,0.3917111562986748,0.497394053448897,0.5398256628200198,0.554752025529754,0.1289492547512054,-0.9716172814369202,-0.198323056101799,-3.413663864135742,-43.80363464355469,15.60538864135742,1,526861.826780375,unknown,2,2015-02-16 17:19:22.123,null,0,0,0,0,null,0,-0.03335571,100.6677,192.168.1.3,10.191.100.224,1,0
2015-02-16 17:19:38.276,24,1424135976.472768,37.77937369340655,-122.4386726476858,57.59465,2.102219,-1,15.18283750448183,200,-9999,1424135978.220057,-5.053123474121094,-43.624267578125,17.534912109375,177.9328765869141,164.1519165039062,25,526877.9114355,-0.222076416015625,-1.119705200195312,-0.2829742431640625,526877.8768475,-0.2273322243391259,0.905408990548016,1.006961980815463,526877.8768475,1.514595549756881,0.2258099271238665,1.363202269271502,-0.2117436230182648,0.9018217325210571,0.9976916313171387,-0.131137803196907,-0.2416546940803528,-0.09574167430400848,XTrueNorthZVertical,0.3948263532244523,0.4936346697185221,0.5816558522193357,0.5119701785006344,0.04614634066820145,-0.9785296320915222,-0.200873926281929,-8.851461410522461,-43.28174209594727,14.90914154052734,1,526861.826780375,unknown,2,2015-02-16 17:19:22.123,null,0,0,0,0,null,0,-0.03335571,100.6677,192.168.1.3,10.191.100.224,1,0
2015-02-16 17:19:38.374,25,1424135976.472768,37.77937369340655,-122.4386726476858,57.59465,2.102219,-1,15.18283750448183,200,-9999,1424135978.339918,-11.41709136962891,-43.38140869140625,15.82431030273438,166.6317596435547,152.8507995605469,25,526878.0106815001,0.313232421875,-1.135238647460938,-0.5091400146484375,526877.9767805,-0.0929235493872628,1.085650135227925,1.008509810041017,526877.9767805,1.983131031050038,-0.09122814753816565,1.3483204472684,-0.07733526825904846,1.082062959671021,0.9992396235466003,0.2970024049282074,-0.0443449467420578,-0.1233203634619713,XTrueNorthZVertical,0.3711542708253567,0.5023750005388516,0.6375392139749201,0.4510073693073496,-0.020101148635149,-0.9753541350364685,-0.2197277247905731,-15.16508483886719,-42.37423324584961,12.18131160736084,1,526861.826780375,unknown,2,2015-02-16 17:19:22.123,null,0,0,0,0,null,0,-0.03335571,100.6677,192.168.1.3,10.191.100.224,1,0
2015-02-16 17:19:38.473,26,1424135976.472768,37.77937369340655,-122.4386726476858,57.59465,2.102219,-1,15.18283750448183,200,-9999,1424135978.457446,-15.8683967590332,-41.92442321777344,15.82437133789062,161.1766967773438,147.3957366943359,25,526878.1099425,0.287017822265625,-1.156906127929688,-0.3154754638671875,526878.0767065,-0.0821888796653714,0.410539331525056,-0.06731139655175275,526878.0767065,2.292731981085959,-0.4986987696845135,1.316910708298793,-0.06660091131925583,0.4069522321224213,-0.07658132910728455,-0.04719892516732216,-0.1494420766830444,-0.03503895178437233,XTrueNorthZVertical,0.4220515977404166,0.459982942989376,0.6362883763434376,0.4532386496950955,-0.1201289594173431,-0.9679437875747681,-0.220576286315918,-17.93603897094727,-40.90979385375977,13.36514091491699,1,526861.826780375,unknown,2,2015-02-16 17:19:22.123,null,0,0,0,0,null,0,-0.03335571,100.6677,192.168.1.3,10.191.100.224,1,0
2015-02-16 17:19:38.581,27,1424135978.47211,37.77936770442852,-122.4387332243407,58.03012,1.330495,-1,10,200,-9999,1424135978.577198,-13.05155181884766,-42.16726684570312,17.60198974609375,162.6103363037109,148.8293762207031,25,526878.2091875001,-0.4868927001953125,-0.243896484375,-1.002685546875,526878.1766465,0.03174408124541749,3.230420527536623,-1.551955527347022,526878.1766465,2.026431405226123,-0.1232532068486804,1.390853375942333,0.04733174294233322,3.226833581924438,-1.561225175857544,1.544036984443665,-2.534929752349854,-0.7662317752838135,XTrueNorthZVertical,0.3785037897697647,0.5176165965512299,0.6293742964214396,0.438971486035565,-0.02200325950980186,-0.9838538765907288,-0.1776158809661865,-16.7405948638916,-41.14333724975586,14.17455863952637,1,526861.826780375,unknown,2,2015-02-16 17:19:22.123,null,0,0,0,0,null,0,-0.03335571,100.6677,192.168.1.3,10.191.100.224,1,0
2015-02-16 17:19:38.672,28,1424135978.47211,37.77936770442852,-122.4387332243407,58.03012,1.330495,-1,10,200,-9999,1424135978.577198,-13.05155181884766,-42.16726684570312,17.60198974609375,162.6103363037109,148.8293762207031,25,526878.3084415001,0.540618896484375,-1.257781982421875,-0.3828582763671875,526878.2765855,0.7937959092627952,6.983597206502644,-0.0967824698067876,526878.2765855,1.974361758618936,-0.2744405369345881,1.378166575099229,0.8094154000282288,6.979947566986084,-0.1060637384653091,0.1821310967206955,0.1259591430425644,0.2280844897031784,XTrueNorthZVertical,0.4351798837662904,0.4674186756416214,0.5900914012886779,0.4938931250740015,-0.0518820732831955,-0.9815042018890381,-0.1842765063047409,-10.89778900146484,-42.06631469726562,16.8997859954834,1,526861.826780375,unknown,2,2015-02-16 17:19:22.123,null,0,0,0,0,null,0,-0.03335571,100.6677,192.168.1.3,10.191.100.224,1,0
2015-02-16 17:19:38.772,29,1424135978.47211,37.77936770442852,-122.4387332243407,58.03012,1.330495,-1,10,200,-9999,1424135978.694616,-9.74786376953125,-42.41009521484375,18.9771728515625,170.7581329345703,156.9771728515625,25,526878.4076855,-0.232696533203125,-0.9345855712890625,0.1321258544921875,526878.3765135,-0.4167407684394145,-2.377518421040609,-0.09655130742416873,526878.3765135,1.866040477564683,-0.2535069362978006,1.385403286896248,-0.401121586561203,-2.381168127059937,-0.1058323904871941,0.02483795396983624,0.05842540040612221,0.08109042048454285,XTrueNorthZVertical,0.4553453957141051,0.4510430411910478,0.5652243612180676,0.5193671124785734,-0.04623077809810638,-0.9828639030456543,-0.1784414947032928,-11.18320465087891,-42.01645660400391,16.83724212646484,1,526861.826780375,unknown,2,2015-02-16 17:19:22.123,null,0,0,0,0,null,0,-0.03335571,100.6677,192.168.1.3,10.191.100.224,1,0
2015-02-16 17:19:38.870,30,1424135978.47211,37.77936770442852,-122.4387332243407,58.03012,1.330495,-1,10,200,-9999,1424135978.813443,-7.34832763671875,-42.65292358398438,18.943603515625,176.8352508544922,163.0542907714844,25,526878.5069255,0.0142059326171875,-0.989013671875,-0.131683349609375,526878.4764535,-0.2221949865963631,0.3374126564170062,-0.5634849392444156,526878.4764535,1.624077914910377,0.04503832906772214,1.382590603594707,-0.2065761089324951,0.3337630927562714,-0.5727658271789551,0.03251565620303154,-0.04166055470705032,-0.06207064911723137,XTrueNorthZVertical,0.4259370690886222,0.4744724521865258,0.568823049465672,0.5195131125702999,0.008423675782978535,-0.9823415279388428,-0.1869070082902908,-9.983171463012695,-42.53419494628906,16.28244781494141,1,526861.826780375,unknown,2,2015-02-16 17:19:22.123,null,0,0,0,0,null,0,-0.03335571,100.6677,192.168.1.3,10.191.100.224,1,0
2015-02-16 17:19:38.977,31,1424135978.47211,37.77936770442852,-122.4387332243407,58.03012,1.330495,-1,10,200,-9999,1424135978.93141,-4.879249572753906,-44.28338623046875,17.16604614257812,178.2741546630859,164.4931945800781,25,526878.6061745001,0.3863067626953125,-0.84136962890625,-0.26519775390625,526878.5763875,-0.3360504495194306,-1.057894670347119,-1.122358881377468,526878.5763875,1.275943350254219,0.3426079743493702,1.332297691114052,-0.3204318881034851,-1.061544179916382,-1.13163959980011,0.2203329354524612,0.06771732121706009,-0.06883729249238968,XTrueNorthZVertical,0.4093274562045432,0.4703126826771569,0.5460081103298927,0.5595821548331591,0.07936494797468185,-0.971693754196167,-0.2225140333175659,-6.567410945892334,-43.6654052734375,14.97134399414062,1,526861.826780375,unknown,2,2015-02-16 17:19:22.123,null,0,0,0,0,null,0,-0.03335571,100.6677,192.168.1.3,10.191.100.224,1,0
2015-02-16 17:19:39.069,32,1424135978.47211,37.77936770442852,-122.4387332243407,58.03012,1.330495,-1,10,200,-9999,1424135979.031843,1.1717529296875,-44.56088256835938,16.02560424804688,187.1418304443359,173.3608703613281,25,526878.7054115001,-0.26416015625,-0.7779388427734375,0.0283203125,526878.6763215,-0.5640535241371475,-0.5640575188787826,-1.485611390903186,526878.6763215,0.9070318009758155,0.5977579198763768,1.221714810954241,-0.5484352707862854,-0.5677069425582886,-1.494892001152039,-0.3030592203140259,0.1089224889874458,0.1475940644741058,XTrueNorthZVertical,0.387055007575504,0.4569742538854007,0.4947998357683142,0.6297111285056549,0.1924940347671509,-0.9396872520446777,-0.2827259004116058,1.344417572021484,-44.72268295288086,13.11540126800537,1,526861.826780375,unknown,2,2015-02-16 17:19:22.123,null,0,0,0,0,null,0,-0.03335571,100.6677,192.168.1.3,10.191.100.224,1,0
2015-02-16 17:19:39.168,33,1424135978.47211,37.77936770442852,-122.4387332243407,58.03012,1.330495,-1,10,200,-9999,1424135979.150779,7.048843383789062,-45.28938293457031,13.84552001953125,196.2171173095703,182.4361572265625,25,526878.8046565,-0.5276336669921875,-0.7020416259765625,-0.2491607666015625,526878.7762615001,-0.54504707606947,-1.317450611243986,0.8438785177744983,526878.7762615001,0.8787226019027637,0.5671897011221696,1.195707139521291,-0.5294291377067566,-1.321099996566772,0.834598183631897,-0.5492618680000305,0.2098023444414139,-0.08145240694284439,XTrueNorthZVertical,0.3906869282380885,0.4391685116506597,0.4800745095489382,0.6511706674930819,0.1968296319246292,-0.9304749369621277,-0.3089894950389862,4.032039165496826,-44.74531173706055,12.47153949737549,1,526861.826780375,unknown,2,2015-02-16 17:19:22.123,null,0,0,0,0,null,0,-0.03335571,100.6677,192.168.1.3,10.191.100.224,1,0
2015-02-16 17:19:39.268,34,1424135978.47211,37.77936770442852,-122.4387332243407,58.03012,1.330495,-1,10,200,-9999,1424135979.150779,7.048843383789062,-45.28938293457031,13.84552001953125,196.2171173095703,182.4361572265625,25,526878.9039085,0.1428680419921875,-1.106674194335938,0.01971435546875,526878.8761885001,1.829709380604618,5.354984185074345,1.78716058850064,526878.8761885001,1.308749573367804,0.2756989337743245,1.328295050280136,1.845331907272339,5.351333618164062,1.777883410453796,-0.2265318334102631,-0.03351682424545288,0.5162650346755981,XTrueNorthZVertical,0.418560171581718,0.4574667915218954,0.541944076386495,0.5672990092828848,0.06536850333213806,-0.9707403779029846,-0.231063038110733,-3.202233791351318,-44.41844177246094,13.80895709991455,1,526861.826780375,unknown,2,2015-02-16 17:19:22.123,null,0,0,0,0,null,0,-0.03335571,100.6677,192.168.1.3,10.191.100.224,1,0
2015-02-16 17:19:39.377,35,1424135978.47211,37.77936770442852,-122.4387332243407,58.03012,1.330495,-1,10,200,-9999,1424135979.269183,-2.618827819824219,-44.59559631347656,15.99212646484375,185.6011657714844,171.8202056884766,25,526879.0031575001,0.2895050048828125,-0.891998291015625,-0.0503997802734375,526878.9761245,0.5682919450120086,-0.1714676267847517,2.319798665470886,526878.9761245,2.613358562430394,-0.7360032208816017,1.418804220114038,0.5839149951934814,-0.1751185059547424,2.310522079467773,0.5507566332817078,0.02236118912696838,0.0469551682472229,XTrueNorthZVertical,0.4221590175892344,0.5154350190075297,0.6222275345686127,0.4110248541354583,-0.1016447246074677,-0.9884714484214783,-0.1122170090675354,-17.97405433654785,-39.7681884765625,16.41232681274414,1,526861.826780375,unknown,2,2015-02-16 17:19:22.123,null,0,0,0,0,null,0,-0.03335571,100.6677,192.168.1.3,10.191.100.224,1,0
2015-02-16 17:19:39.465,36,1424135978.47211,37.77936770442852,-122.4387332243407,58.03012,1.330495,-1,10,200,-9999,1424135979.388078,-17.39853668212891,-40.32872009277344,19.44674682617188,156.005126953125,142.2241668701172,25,526879.1024135001,1.178604125976562,-1.822738647460938,-1.270126342773438,526879.0760605,0.3184991526713725,2.289457271171613,0.05430185462671567,526879.0760605,-2.989658641762797,-1.398615400431418,1.327953897303439,0.3341218531131744,2.28580641746521,0.04502539709210396,0.6112204790115356,0.01579389721155167,0.2251282632350922,XTrueNorthZVertical,0.4696804659506342,0.5087247258672445,0.6310678326743014,0.3497896999670821,-0.2369071245193481,-0.9706584215164185,-0.04119882732629776,-23.35615158081055,-35.39201354980469,19.38646507263184,1,526861.826780375,unknown,2,2015-02-16 17:19:22.123,null,0,0,0,0,null,0,-0.03335571,100.6677,192.168.1.3,10.191.100.224,1,0
2015-02-16 17:19:39.566,37,1424135979.47317,37.7793682976926,-122.4387234203771,58.4942,2.598226,31.86005881839511,10,200,-9999,1424135979.507737,-21.60640716552734,-36.82501220703125,20.5535888671875,145.4845581054688,131.7035980224609,25,526879.2016655001,-0.62164306640625,-0.917449951171875,0.2021942138671875,526879.1759945001,-0.01590706119104329,-3.806509409272057,-0.7805682544444806,526879.1759945001,-2.907305956917023,-1.573907152438601,1.427955879980106,-0.0002846602874342352,-3.810160160064697,-0.7898445129394531,-0.4448034763336182,-0.07108218967914581,0.1360775381326675,XTrueNorthZVertical,0.4775329535359343,0.5217122764246267,0.5841193708829636,0.3982250242237187,-0.1423547267913818,-0.9898156523704529,0.0004428421671036631,-20.36782836914062,-36.3313102722168,20.95536041259766,1,526861.826780375,unknown,2,2015-02-16 17:19:22.123,null,0,0,0,0,null,0,-0.05003357,100.6679,192.168.1.3,10.191.100.224,1,0
2015-02-16 17:19:39.664,38,1424135979.47317,37.7793682976926,-122.4387234203771,58.4942,2.598226,31.86005881839511,10,200,-9999,1424135979.625569,-15.65974044799805,-37.55349731445312,25.4840087890625,160.5260620117188,146.7451019287109,25,526879.3009125,0.150634765625,-0.99322509765625,0.1412811279296875,526879.2759275,0.2121324987336077,0.8283938339323416,-0.4896072527089635,526879.2759275,-2.639482323914514,-1.822864233597264,1.445168022532424,0.2277896404266357,0.8246746063232422,-0.4988953173160553,0.1586007326841354,0.08182556182146072,0.1521145701408386,XTrueNorthZVertical,0.4736323838614063,0.5397198460829919,0.5749684290090389,0.3921558220763795,-0.121338777244091,-0.9921191334724426,0.03125029429793358,-17.86301803588867,-36.20289993286133,23.32814979553223,1,526861.826780375,unknown,2,2015-02-16 17:19:22.123,null,0,0,0,0,null,0,-0.05003357,100.6679,192.168.1.3,10.191.100.224,1,0
2015-02-16 17:19:39.779,39,1424135979.47317,37.7793682976926,-122.4387234203771,58.4942,2.598226,31.86005881839511,10,200,-9999,1424135979.7445,-16.00749969482422,-37.76162719726562,26.490234375,157.9747619628906,144.1938018798828,25,526879.4001715,-0.3735809326171875,-0.3665618896484375,0.09124755859375,526879.3758625,-0.1424290508907458,-2.197241856318203,-0.01761894113974622,526879.2759275,-2.639482323914514,-1.822864233597264,1.445168022532424,0.2277896404266357,0.8246746063232422,-0.4988953173160553,0.1586007326841354,0.08182556182146072,0.1521145701408386,XTrueNorthZVertical,0.4736323838614063,0.5397198460829919,0.5749684290090389,0.3921558220763795,-0.121338777244091,-0.9921191334724426,0.03125029429793358,-17.86301803588867,-36.20289993286133,23.32814979553223,1,526861.826780375,unknown,2,2015-02-16 17:19:22.123,null,0,0,0,0,null,0,-0.05003357,100.6679,192.168.1.3,10.191.100.224,1,0
2015-02-16 17:19:39.864,40,1424135979.47317,37.7793682976926,-122.4387234203771,58.4942,2.598226,31.86005881839511,10,200,-9999,1424135979.861612,-14.26869964599609,-36.65155029296875,28.36849975585938,160.7560119628906,146.9750518798828,25,526879.4994085,-0.3314208984375,-0.8802337646484375,0.2082366943359375,526879.4757965,-0.6706667867918537,-1.474650618804747,-0.229921882183119,526879.4757965,-2.269889160306956,-2.256966850803028,1.44246034943662,-0.6550102233886719,-1.47836971282959,-0.2392096072435379,0.002949249232187867,0.1743171215057373,0.2933167815208435,XTrueNorthZVertical,0.4959456399875416,0.5427540777450794,0.5433400045114185,0.4052623881013128,-0.09901858866214752,-0.9917762279510498,0.08108813315629959,-16.68319320678711,-35.2298698425293,25.58255386352539,1,526861.826780375,unknown,2,2015-02-16 17:19:22.123,null,0,0,0,0,null,0,-0.05003357,100.6679,192.168.1.3,10.191.100.224,1,0
2015-02-16 17:19:39.960,41,1424135979.47317,37.7793682976926,-122.4387234203771,58.4942,2.598226,31.86005881839511,10,200,-9999,1424135979.861612,-14.26869964599609,-36.65155029296875,28.36849975585938,160.7560119628906,146.9750518798828,25,526879.5986505001,-0.010528564453125,-0.943603515625,0.1544952392578125,526879.5757155,-0.2563231296496195,-0.4307537894631934,-0.1064460161382491,526879.5757155,-2.005637963637616,-2.415196864394471,1.456890160158649,-0.2406669110059738,-0.4344727694988251,-0.1157335489988327,0.3245600759983063,-0.03968342021107674,0.1526099592447281,XTrueNorthZVertical,0.460790803738296,0.5745924879346174,0.5582226150327934,0.3819723164168864,-0.07549084722995758,-0.9935197234153748,0.08496938645839691,-17.73714065551758,-35.53841018676758,24.42038154602051,1,526861.826780375,unknown,2,2015-02-16 17:19:22.123,null,0,0,0,0,null,0,-0.05003357,100.6679,192.168.1.3,10.191.100.224,1,0
2015-02-16 17:19:40.063,42,1424135979.47317,37.7793682976926,-122.4387234203771,58.4942,2.598226,31.86005881839511,10,200,-9999,1424135979.961626,-14.68601608276367,-36.51280212402344,26.95977783203125,157.7862091064453,144.0052490234375,25,526879.6979155,0.0064849853515625,-1.001510620117188,0.127593994140625,526879.6756595001,-0.385166330555435,0.588065916105847,-0.5216812996134418,526879.5757155,-2.005637963637616,-2.415196864394471,1.456890160158649,-0.2406669110059738,-0.4344727694988251,-0.1157335489988327,0.3245600759983063,-0.03968342021107674,0.1526099592447281,XTrueNorthZVertical,0.460790803738296,0.5745924879346174,0.5582226150327934,0.3819723164168864,-0.07549084722995758,-0.9935197234153748,0.08496938645839691,-17.73714065551758,-35.53841018676758,24.42038154602051,1,526861.826780375,unknown,2,2015-02-16 17:19:22.123,null,0,0,0,0,null,0,-0.05003357,100.6679,192.168.1.3,10.191.100.224,1,0
2015-02-16 17:19:40.163,43,1424135979.47317,37.7793682976926,-122.4387234203771,58.4942,2.598226,31.86005881839511,10,200,-9999,1424135980.063796,-13.53840255737305,-37.24128723144531,25.65170288085938,160.7669677734375,146.9860076904297,25,526879.7971705,0.0429534912109375,-1.00189208984375,0.0615386962890625,526879.7756005001,-0.8557053498594311,-0.172282820394425,-0.5546794634161776,526879.6756595001,-1.971944269634678,-2.470335320671053,1.499265624055216,-0.3695104122161865,0.5843470096588135,-0.5309686660766602,-0.02264052256941795,0.01083998661488295,0.1130575835704803,XTrueNorthZVertical,0.452354423892877,0.5686453067781841,0.5561736640528699,0.4033470913757838,-0.04445237293839455,-0.9974427819252014,0.05596401914954185,-15.82198429107666,-36.82248687744141,23.82663917541504,1,526861.826780375,unknown,2,2015-02-16 17:19:22.123,null,0,0,0,0,null,0,-0.05003357,100.6679,192.168.1.3,10.191.100.224,1,0
2015-02-16 17:19:40.260,44,1424135979.47317,37.7793682976926,-122.4387234203771,58.4942,2.598226,31.86005881839511,10,200,-9999,1424135980.183631,-11.48662185668945,-40.3287353515625,23.270263671875,163.94287109375,150.1619110107422,25,526879.8964375,0.0770111083984375,-1.018218994140625,-0.0757293701171875,526879.8755225,-1.239221852119562,-0.4558934975213234,-0.3955055208554497,526879.8755225,1.338758027679043,0.4872455672166793,1.443950575916895,-1.22356653213501,-0.4596122205257416,-0.4047924876213074,0.03281165286898613,-0.02399483509361744,0.101285994052887,XTrueNorthZVertical,0.3906211302803146,0.5399288026164186,0.5769483122967431,0.4722527883086356,0.05922936275601387,-0.9919658303260803,-0.111784040927887,-12.07296848297119,-41.1187629699707,18.36928558349609,1,526861.826780375,unknown,2,2015-02-16 17:19:22.123,null,0,0,0,0,null,0,-0.05003357,100.6679,192.168.1.3,10.191.100.224,1,0
2015-02-16 17:19:40.360,45,1424135979.47317,37.7793682976926,-122.4387234203771,58.4942,2.598226,31.86005881839511,10,200,-9999,1424135980.301033,-8.49591064453125,-43.03457641601562,18.37332153320312,169.3286285400391,155.5476684570312,25,526879.9956855,-0.0936737060546875,-1.046035766601562,0.0355377197265625,526879.9754715001,0.09098370284924907,-0.03394012388029684,0.516678285189619,526879.8755225,1.338758027679043,0.4872455672166793,1.443950575916895,-1.22356653213501,-0.4596122205257416,-0.4047924876213074,0.03281165286898613,-0.02399483509361744,0.101285994052887,XTrueNorthZVertical,0.3906211302803146,0.5399288026164186,0.5769483122967431,0.4722527883086356,0.05922936275601387,-0.9919658303260803,-0.111784040927887,-12.07296848297119,-41.1187629699707,18.36928558349609,1,526861.826780375,unknown,2,2015-02-16 17:19:22.123,null,0,0,0,0,null,0,-0.05003357,100.6679,192.168.1.3,10.191.100.224,1,0
2015-02-16 17:19:40.458,46,1424135979.47317,37.7793682976926,-122.4387234203771,58.4942,2.598226,31.86005881839511,10,200,-9999,1424135980.419919,-9.121871948242188,-43.03457641601562,16.29385375976562,169.3477172851562,155.5667572021484,25,526880.0949275,0.083221435546875,-0.826904296875,-0.2298126220703125,526880.0753875,0.4923950497380584,0.2324894357900644,0.2743348870501524,526879.9754715001,1.504414620022138,0.2696972418755604,1.357596457077787,0.1066386699676514,-0.03765879571437836,0.5073914527893066,-0.1454868912696838,-0.1387910395860672,0.1779084354639053,XTrueNorthZVertical,0.3827944802356466,0.5014961830108372,0.5886006610893062,0.5054891260309409,0.05637556686997414,-0.977358877658844,-0.2039399296045303,-10.1872615814209,-43.29467010498047,13.99038791656494,1,526861.826780375,unknown,2,2015-02-16 17:19:22.123,null,0,0,0,0,null,0,-0.05003357,100.6679,192.168.1.3,10.191.100.224,1,0
2015-02-16 17:19:40.559,47,1424135979.47317,37.7793682976926,-122.4387234203771,58.4942,2.598226,31.86005881839511,10,200,-9999,1424135980.536353,-11.06931686401367,-42.06324768066406,18.77587890625,166.1149597167969,152.3339996337891,25,526880.1941675,0.0296630859375,-0.5972900390625,-0.2044677734375,526880.1753335,0.474868520288138,-0.6633643990828564,0.5758441372312554,526880.1753335,1.890704834337298,-0.07421848116543453,1.446870619875526,0.4905228316783905,-0.6670829057693481,0.5665577054023743,0.08869446069002151,0.3732056617736816,-0.02712194435298443,XTrueNorthZVertical,0.4098287816306215,0.5200057978150617,0.5928546466725605,0.4584296438367013,-0.009165649302303791,-0.9923310279846191,-0.1232686787843704,-13.82868671417236,-41.28001022338867,16.69334411621094,1,526861.826780375,unknown,2,2015-02-16 17:19:22.123,null,0,0,0,0,null,0,-0.05003357,100.6679,192.168.1.3,10.191.100.224,1,0
2015-02-16 17:19:40.663,48,1424135979.47317,37.7793682976926,-122.4387234203771,58.4942,2.598226,31.86005881839511,10,200,-9999,1424135980.65703,-12.87765502929688,-41.30006408691406,19.58087158203125,165.7351684570312,151.9542083740234,25,526880.2933895,-0.301025390625,-0.616241455078125,-0.198394775390625,526880.2752715,-0.08286878469166863,-0.5003581677135044,0.1574242457245459,526880.2752715,2.129974001674165,-0.2309884455640298,1.44002036121957,-0.06717681884765625,-0.5041499137878418,0.1481259316205978,0.1905601769685745,-1.75766921043396,-0.630612850189209,XTrueNorthZVertical,0.3931446997788872,0.5310057498118749,0.6164626084266319,0.4283036557840014,-0.02985460683703423,-0.9914609789848328,-0.1269402801990509,-15.75896072387695,-40.26399993896484,17.44721221923828,1,526861.826780375,unknown,2,2015-02-16 17:19:22.123,null,0,0,0,0,null,0,-0.05003357,100.6679,192.168.1.3,10.191.100.224,1,0
2015-02-16 17:19:40.757,49,1424135979.47317,37.7793682976926,-122.4387234203771,58.4942,2.598226,31.86005881839511,10,200,-9999,1424135980.65703,-12.87765502929688,-41.30006408691406,19.58087158203125,165.7351684570312,151.9542083740234,25,526880.3926395001,-0.24542236328125,-1.01531982421875,-0.0070343017578125,526880.3751925001,-0.3176717085206848,-2.096778098936599,0.2290073526647858,526880.2752715,2.129974001674165,-0.2309884455640298,1.44002036121957,-0.06717681884765625,-0.5041499137878418,0.1481259316205978,0.1905601769685745,-1.75766921043396,-0.630612850189209,XTrueNorthZVertical,0.3931446997788872,0.5310057498118749,0.6164626084266319,0.4283036557840014,-0.02985460683703423,-0.9914609789848328,-0.1269402801990509,-15.75896072387695,-40.26399993896484,17.44721221923828,1,526861.826780375,unknown,2,2015-02-16 17:19:22.123,null,0,0,0,0,null,0,-0.05003357,100.6679,192.168.1.3,10.191.100.224,1,0
2015-02-16 17:19:40.856,50,1424135979.47317,37.7793682976926,-122.4387234203771,58.4942,2.598226,31.86005881839511,10,200,-9999,1424135980.773953,-14.9294319152832,-41.1265869140625,18.20565795898438,165.9835968017578,152.20263671875,25,526880.4918825,0.2011260986328125,-0.93017578125,-0.1879119873046875,526880.4751405,0.2512261056393169,1.492984618697179,-0.2942824962470639,526880.3751925001,2.301475988764886,-0.5114921003319153,1.365375355021097,-0.3019800782203674,-2.1005699634552,0.2197092324495316,-0.3098243474960327,0.08795347064733505,0.1123976781964302,XTrueNorthZVertical,0.4281229598836115,0.4772569125854343,0.6203033344677125,0.4518410940825998,-0.09984362870454788,-0.9789751768112183,-0.1778731346130371,-17.1497802734375,-40.68468475341797,14.98604011535645,1,526861.826780375,unknown,2,2015-02-16 17:19:22.123,null,0,0,0,0,null,0,-0.4331131,100.6725,192.168.1.3,10.191.100.224,1,0
2015-02-16 17:19:40.956,51,1424135979.47317,37.7793682976926,-122.4387234203771,58.4942,2.598226,31.86005881839511,10,200,-9999,1424135980.891733,-15.93793869018555,-40.12059020996094,16.76339721679688,161.2618103027344,147.4808502197266,25,526880.5911365,0.0299072265625,-0.98712158203125,-0.13226318359375,526880.5750755001,-0.01854305803800372,0.9586282701916145,-0.2396472138518703,526880.5750755001,2.221946424415889,-0.391354585879654,1.398336115992895,-0.002852036152034998,0.9548366665840149,-0.248944953083992,-0.05655144527554512,-0.003405606606975198,0.157396137714386,XTrueNorthZVertical,0.4135200918131369,0.4996849860433425,0.61725740407165,0.4453194089101165,-0.06545782834291458,-0.985165536403656,-0.1586320996284485,-16.81116485595703,-40.68651962280273,15.36006164550781,1,526861.826780375,unknown,2,2015-02-16 17:19:22.123,null,0,0,0,0,null,0,-0.4331131,100.6725,192.168.1.3,10.191.100.224,1,0
2015-02-16 17:19:41.060,52,1424135979.47317,37.7793682976926,-122.4387234203771,58.4942,2.598226,31.86005881839511,10,200,-9999,1424135980.993543,-13.95572280883789,-40.71031188964844,18.27276611328125,165.0572662353516,151.2763061523438,25,526880.6903685001,0.0212860107421875,-0.99615478515625,-0.096099853515625,526880.6750095,0.03482163020111306,0.1704508318805595,-0.1494885583083278,526880.5750755001,2.221946424415889,-0.391354585879654,1.398336115992895,-0.002852036152034998,0.9548366665840149,-0.248944953083992,-0.05655144527554512,-0.003405606606975198,0.157396137714386,XTrueNorthZVertical,0.4135200918131369,0.4996849860433425,0.61725740407165,0.4453194089101165,-0.06545782834291458,-0.985165536403656,-0.1586320996284485,-16.81116485595703,-40.68651962280273,15.36006164550781,1,526861.826780375,unknown,2,2015-02-16 17:19:22.123,null,0,0,0,0,null,0,-0.4331131,100.6725,192.168.1.3,10.191.100.224,1,0
2015-02-16 17:19:41.153,53,1424135979.47317,37.7793682976926,-122.4387234203771,58.4942,2.598226,31.86005881839511,10,200,-9999,1424135981.113001,-13.26020431518555,-41.40414428710938,17.66897583007812,165.427001953125,151.6460418701172,25,526880.7896175,0.01751708984375,-0.996307373046875,-0.0637969970703125,526880.7749445001,0.0605712021488712,0.2267758899874084,-0.09739766001859591,526880.6750095,2.075932884939285,-0.2305868727150528,1.41226193450365,0.05051233619451523,0.1666593551635742,-0.1587861180305481,0.02140235900878906,-0.02203124575316906,0.1069704294204712,XTrueNorthZVertical,0.4028286863719525,0.5107667065239665,0.6131297995546571,0.4482391106141698,-0.03608131408691406,-0.9874597191810608,-0.1536928415298462,-15.76796913146973,-41.12060546875,15.31034851074219,1,526861.826780375,unknown,2,2015-02-16 17:19:22.123,null,0,0,0,0,null,0,-0.4331131,100.6725,192.168.1.3,10.191.100.224,1,0
2015-02-16 17:19:41.253,54,1424135979.47317,37.7793682976926,-122.4387234203771,58.4942,2.598226,31.86005881839511,10,200,-9999,1424135981.230127,-12.18214416503906,-40.67561340332031,18.44039916992188,167.2865753173828,153.505615234375,25,526880.8888645,0.0092620849609375,-0.97027587890625,-0.0982513427734375,526880.8748785,0.03943928521520145,-0.07112424428441919,0.001018925433064317,526880.7749445001,1.989955451702877,-0.1527504282118182,1.418229665878266,0.07626160979270935,0.2229844778776169,-0.1066950485110283,0.003989653661847115,0.003780382685363293,0.05889749899506569,XTrueNorthZVertical,0.4021082057724121,0.5130360074093062,0.607647492437459,0.4537263507116228,-0.02312417514622211,-0.9883842468261719,-0.1502060890197754,-14.97970390319824,-41.3111686706543,15.58639144897461,1,526861.826780375,unknown,2,2015-02-16 17:19:22.123,null,0,0,0,0,null,0,-0.4331131,100.6725,192.168.1.3,10.191.100.224,1,0
2015-02-16 17:19:41.353,55,1424135979.47317,37.7793682976926,-122.4387234203771,58.4942,2.598226,31.86005881839511,10,200,-9999,1424135981.348807,-12.94721984863281,-39.98184204101562,18.44039916992188,166.3163909912109,152.5354309082031,25,526880.9881175,-0.016571044921875,-0.9865875244140625,-0.1099395751953125,526880.9748115001,-0.03454332986719978,-0.1585544912911755,0.2496617648150043,526880.8748785,1.943125418226524,-0.1158154581809722,1.419760421463554,0.05512937903404236,-0.0749155655503273,-0.008278274908661842,0.003287831787019968,-0.008439309895038605,0.05520099028944969,XTrueNorthZVertical,0.4032203316419056,0.5125291195409463,0.6039713909241398,0.4581984888254683,-0.01738695241510868,-0.9886157512664795,-0.1494545340538025,-14.61713695526123,-41.41839981079102,15.64593029022217,1,526861.826780375,unknown,2,2015-02-16 17:19:22.123,null,0,0,0,0,null,0,-0.4331131,100.6725,192.168.1.3,10.191.100.224,1,0
2015-02-16 17:19:41.462,56,1424135979.47317,37.7793682976926,-122.4387234203771,58.4942,2.598226,31.86005881839511,10,200,-9999,1424135981.348807,-12.94721984863281,-39.98184204101562,18.44039916992188,166.3163909912109,152.5354309082031,25,526881.0873415,-0.0355682373046875,-0.993194580078125,-0.0952301025390625,526881.0747545001,-0.03694869696375935,-0.06648714819437322,0.1419299745024649,526880.9748115001,1.943091249050636,-0.1098172627505392,1.431078868333916,-0.01882586069405079,-0.1623416393995285,0.2403087764978409,0.04039404168725014,0.009664563462138176,-0.001178044592961669,XTrueNorthZVertical,0.403659585935762,0.517539013395009,0.6019865315795696,0.4547796769169642,-0.01526281796395779,-0.9902553558349609,-0.1384246200323105,-14.44190788269043,-41.29051971435547,16.13890075683594,1,526861.826780375,unknown,2,2015-02-16 17:19:22.123,null,0,0,0,0,null,0,-0.4331131,100.6725,192.168.1.3,10.191.100.224,1,0
2015-02-16 17:19:41.550,57,1424135979.47317,37.7793682976926,-122.4387234203771,58.4942,2.598226,31.86005881839511,10,200,-9999,1424135981.467572,-13.71229934692383,-40.81440734863281,18.17208862304688,165.3058624267578,151.52490234375,25,526881.1866085001,-0.0441436767578125,-0.9811553955078125,-0.1121978759765625,526881.1746785,-0.01523035195805415,0.186466283727969,-0.1269725965561439,526881.0747545001,2.090730163278029,-0.2688769250037867,1.428293271853427,-0.02121615037322044,-0.07027475535869598,0.1325764805078506,0.0006794928922317922,0.0005600216099992394,0.044068843126297,XTrueNorthZVertical,0.4131816309653755,0.5107070129218538,0.6037886104594931,0.451551360432269,-0.03772783279418945,-0.9898636341094971,-0.1369185745716095,-15.09336853027344,-40.9791374206543,16.33524513244629,1,526861.826780375,unknown,2,2015-02-16 17:19:22.123,null,0,0,0,0,null,0,-0.4331131,100.6725,192.168.1.3,10.191.100.224,1,0
2015-02-16 17:19:41.649,58,1424135979.47317,37.7793682976926,-122.4387234203771,58.4942,2.598226,31.86005881839511,10,200,-9999,1424135981.586312,-13.53840255737305,-40.36341857910156,17.534912109375,164.6585083007812,150.8775482177734,25,526881.2858535,-0.0292510986328125,-0.9761505126953125,-0.1287994384765625,526881.2746115,0.006013950373616936,-0.01305002197360628,-0.1385600104590786,526881.1746785,2.131220928088545,-0.310519018804234,1.429499851509673,0.0005246239597909153,0.1826766282320023,-0.1363123208284378,-0.03889435157179832,0.004392770584672689,0.02894362434744835,XTrueNorthZVertical,0.4155936770042742,0.5101332428964807,0.6039121689907814,0.4498178439262335,-0.04303008690476418,-0.9900342226028442,-0.1340919435024261,-15.34760665893555,-40.83905792236328,16.44877815246582,1,526861.826780375,unknown,2,2015-02-16 17:19:22.123,null,0,0,0,0,null,0,-0.4331131,100.6725,192.168.1.3,10.191.100.224,1,0
2015-02-16 17:19:41.749,59,1424135979.47317,37.7793682976926,-122.4387234203771,58.4942,2.598226,31.86005881839511,10,200,-9999,1424135981.705103,-13.60795974731445,-40.71034240722656,18.67520141601562,165.1652374267578,151.38427734375,25,526881.3851055,0.013916015625,-0.9846343994140625,-0.1290283203125,526881.3745505001,0.0158000021152221,0.04013437025971214,-0.07469421172567041,526881.2746115,2.006294426283013,-0.1798745730392332,1.432327275975712,0.02180018834769726,-0.01691662706434727,-0.1479205638170242,-0.0002236896398244426,0.01244690176099539,0.007229704409837723,XTrueNorthZVertical,0.4086645945932172,0.5148719439566773,0.6017536636692766,0.4536437910480483,-0.02469391375780106,-0.9904284477233887,-0.1358002573251724,-14.87606620788574,-41.06488800048828,16.31923866271973,1,526861.826780375,unknown,2,2015-02-16 17:19:22.123,null,0,0,0,0,null,0,-0.4331131,100.6725,192.168.1.3,10.191.100.224,1,0
2015-02-16 17:19:41.859,60,1424135979.47317,37.7793682976926,-122.4387234203771,58.4942,2.598226,31.86005881839511,10,200,-9999,1424135981.823824,-12.73856735229492,-41.09193420410156,18.3062744140625,165.7470245361328,151.966064453125,25,526881.4843415,0.002655029296875,-0.9846038818359375,-0.1280975341796875,526881.4744845,-0.002177134191139777,-0.02549310953478351,-0.01382340395416529,526881.3745505001,1.889597310648591,-0.05478227727015449,1.439938387848314,0.03158982470631599,0.03626848012208939,-0.08406480401754379,0.03033804893493652,0.01702404022216797,0.01308648847043514,XTrueNorthZVertical,0.4028653469538906,0.5220678966017758,0.5984549744921051,0.4549684577097423,-0.007144690491259098,-0.991450309753418,-0.1302892416715622,-14.36411285400391,-41.21297836303711,16.40434646606445,1,526861.826780375,unknown,2,2015-02-16 17:19:22.123,null,0,0,0,0,null,0,-0.4331131,100.6725,192.168.1.3,10.191.100.224,1,0
2015-02-16 17:19:41.947,61,1424135979.47317,37.7793682976926,-122.4387234203771,58.4942,2.598226,31.86005881839511,10,200,-9999,1424135981.924102,-12.8428955078125,-40.98786926269531,18.80938720703125,165.7381744384766,151.9572143554688,25,526881.5835965,0.024200439453125,-0.9869384765625,-0.104736328125,526881.5744195001,-0.002161954172926325,-0.0350277588694852,-0.007419034164742742,526881.4744845,1.79554478049123,0.04450607831391757,1.447080600648558,0.01362605486065149,-0.02935746498405933,-0.02321952022612095,0.00413803244009614,0.01112527586519718,-0.01170084998011589,XTrueNorthZVertical,0.3995439925170701,0.5279445035316265,0.5950757945427054,0.4555480528190634,0.00549026345834136,-0.9923569560050964,-0.1232784017920494,-13.935133934021,-41.24654769897461,16.68754577636719,1,526861.826780375,unknown,2,2015-02-16 17:19:22.123,null,0,0,0,0,null,0,-0.4331131,100.6725,192.168.1.3,10.191.100.224,1,0
2015-02-16 17:19:42.046,62,1424135979.47317,37.7793682976926,-122.4387234203771,58.4942,2.598226,31.86005881839511,10,200,-9999,1424135982.042703,-12.84290313720703,-40.36344909667969,18.809326171875,165.5488739013672,151.7679138183594,25,526881.6828385,0.025238037109375,-0.98199462890625,-0.1237030029296875,526881.6743535,-0.01919526618896412,0.08806328039786819,-0.008557269214642609,526881.5744195001,1.763760363457019,0.07781415717355175,1.451682667820766,0.01365188136696815,-0.03889181092381477,-0.01681842282414436,0.02044082991778851,0.001840743352659047,0.006549615412950516,XTrueNorthZVertical,0.399178836051839,0.5304901887462287,0.5933383798622852,0.4551769039816237,0.009237515740096569,-0.9929143786430359,-0.1184728294610977,-13.81223964691162,-41.23945617675781,16.80681991577148,1,526861.826780375,unknown,2,2015-02-16 17:19:22.123,null,0,0,0,0,null,0,-0.4331131,100.6725,192.168.1.3,10.191.100.224,1,0
2015-02-16 17:19:42.146,63,1424135979.47317,37.7793682976926,-122.4387234203771,58.4942,2.598226,31.86005881839511,10,200,-9999,1424135982.042703,-12.84290313720703,-40.36344909667969,18.809326171875,165.5488739013672,151.7679138183594,25,526881.7820915,0.0089874267578125,-0.98504638671875,-0.1076812744140625,526881.7742885001,-0.004324707294179675,0.008441954339442177,-0.02237747737549981,526881.6743535,1.759540257903532,0.08421266430098925,1.454289093796875,-0.003332204185426235,0.08412622660398483,-0.01796828024089336,0.01126421429216862,0.009349246509373188,-0.00224038795568049,XTrueNorthZVertical,0.3990484923708914,0.5318310256768323,0.5930138842845371,0.4541482405045975,0.009777655825018883,-0.9932206869125366,-0.11583212018013,-13.766357421875,-41.21204376220703,16.91136932373047,1,526861.826780375,unknown,2,2015-02-16 17:19:22.123,null,0,0,0,0,null,0,-1.034492,100.6797,192.168.1.3,10.191.100.224,1,0
2015-02-16 17:19:42.257,64,1424135979.47317,37.7793682976926,-122.4387234203771,58.4942,2.598226,31.86005881839511,10,200,-9999,1424135982.158896,-12.42559432983398,-41.12660217285156,18.94351196289062,165.275146484375,151.4941864013672,25,526881.8813355,-9.1552734375e-05,-0.9885101318359375,-0.09869384765625,526881.8742155001,-0.02237827632382683,3.435477806202217e-05,0.005396097000718553,526881.7742885001,1.749167910106231,0.0926640629098025,1.45378191693663,0.01153611484915018,0.004504846408963203,-0.0317869670689106,-0.01383934821933508,0.01313537731766701,-0.001261022058315575,XTrueNorthZVertical,0.3991744204691502,0.5315414619538871,0.5924667953295513,0.4550896429744173,0.01080284919589758,-0.9931616187095642,-0.1162469089031219,-13.69147205352783,-41.24058532714844,16.90259552001953,1,526861.826780375,unknown,2,2015-02-16 17:19:22.123,null,0,0,0,0,null,0,-1.034492,100.6797,192.168.1.3,10.191.100.224,1,0
